{
"type": "FeatureCollection",
"name": "public-transport-point",
"crs": { "type": "name", "properties": { "name": "urn:ogc:def:crs:OGC:1.3:CRS84" } },
"features": [
{ "type": "Feature", "properties": { "NAME": "Dorchester Ave @ Dix St", "NAME_EN": null, "RAILWAY": null, "HIGHWAY": "bus_stop", "REF": "341", "NETWORK": "MBTA", "PUBLIC_TRA": "platform", "OSM_TYPE": "node", "OSM_ID": 61360511 }, "geometry": { "type": "Point", "coordinates": [ -71.0616082, 42.2949393 ] } },
{ "type": "Feature", "properties": { "NAME": null, "NAME_EN": null, "RAILWAY": "tram_stop", "HIGHWAY": null, "REF": null, "NETWORK": null, "PUBLIC_TRA": "stop_position", "OSM_TYPE": "node", "OSM_ID": 61391719 }, "geometry": { "type": "Point", "coordinates": [ -71.091565, 42.306687 ] } },
{ "type": "Feature", "properties": { "NAME": "Washington St @ Welles Ave", "NAME_EN": null, "RAILWAY": null, "HIGHWAY": "bus_stop", "REF": "437", "NETWORK": "MBTA", "PUBLIC_TRA": "platform", "OSM_TYPE": "node", "OSM_ID": 61492730 }, "geometry": { "type": "Point", "coordinates": [ -71.0710461, 42.2882142 ] } },
{ "type": "Feature", "properties": { "NAME": "Morton St @ Selden St", "NAME_EN": null, "RAILWAY": null, "HIGHWAY": "bus_stop", "REF": "540", "NETWORK": "MBTA", "PUBLIC_TRA": "platform", "OSM_TYPE": "node", "OSM_ID": 61516794 }, "geometry": { "type": "Point", "coordinates": [ -71.0822478, 42.2803709 ] } },
{ "type": "Feature", "properties": { "NAME": null, "NAME_EN": null, "RAILWAY": "tram_stop", "HIGHWAY": null, "REF": null, "NETWORK": null, "PUBLIC_TRA": "stop_position", "OSM_TYPE": "node", "OSM_ID": 61574329 }, "geometry": { "type": "Point", "coordinates": [ -71.087858, 42.30356 ] } },
{ "type": "Feature", "properties": { "NAME": "Fields Corner Sta @ Geneva Ave", "NAME_EN": null, "RAILWAY": null, "HIGHWAY": "bus_stop", "REF": "55600", "NETWORK": "MBTA", "PUBLIC_TRA": "platform", "OSM_TYPE": "node", "OSM_ID": 61574392 }, "geometry": { "type": "Point", "coordinates": [ -71.0638155, 42.2991265 ] } },
{ "type": "Feature", "properties": { "NAME": "Sullivan Station", "NAME_EN": null, "RAILWAY": null, "HIGHWAY": "bus_stop", "REF": "70031", "NETWORK": "MBTA", "PUBLIC_TRA": "platform", "OSM_TYPE": "node", "OSM_ID": 61593246 }, "geometry": { "type": "Point", "coordinates": [ -71.0765604, 42.3842321 ] } },
{ "type": "Feature", "properties": { "NAME": "Lenox St", "NAME_EN": null, "RAILWAY": null, "HIGHWAY": "bus_stop", "REF": "4", "NETWORK": "MBTA", "PUBLIC_TRA": "platform", "OSM_TYPE": "node", "OSM_ID": 69504140 }, "geometry": { "type": "Point", "coordinates": [ -71.078873, 42.334949 ] } },
{ "type": "Feature", "properties": { "NAME": "Massachusetts Ave", "NAME_EN": null, "RAILWAY": null, "HIGHWAY": "bus_stop", "REF": "55", "NETWORK": "MBTA", "PUBLIC_TRA": "platform", "OSM_TYPE": "node", "OSM_ID": 69504209 }, "geometry": { "type": "Point", "coordinates": [ -71.077217, 42.336361 ] } },
{ "type": "Feature", "properties": { "NAME": "Design Center Place", "NAME_EN": null, "RAILWAY": null, "HIGHWAY": "bus_stop", "REF": "31255", "NETWORK": "MBTA", "PUBLIC_TRA": "platform", "OSM_TYPE": "node", "OSM_ID": 69504282 }, "geometry": { "type": "Point", "coordinates": [ -71.0344644, 42.3446047 ] } },
{ "type": "Feature", "properties": { "NAME": "23 Dry Dock Ave", "NAME_EN": null, "RAILWAY": null, "HIGHWAY": "bus_stop", "REF": "30250", "NETWORK": "MBTA", "PUBLIC_TRA": "platform", "OSM_TYPE": "node", "OSM_ID": 69504313 }, "geometry": { "type": "Point", "coordinates": [ -71.0304114, 42.344696 ] } },
{ "type": "Feature", "properties": { "NAME": "Courthouse", "NAME_EN": null, "RAILWAY": null, "HIGHWAY": "bus_stop", "REF": "74612", "NETWORK": "MBTA", "PUBLIC_TRA": "platform", "OSM_TYPE": "node", "OSM_ID": 69504374 }, "geometry": { "type": "Point", "coordinates": [ -71.047386, 42.352573 ] } },
{ "type": "Feature", "properties": { "NAME": "Terminal B East - Arrivals Level", "NAME_EN": null, "RAILWAY": null, "HIGHWAY": "bus_stop", "REF": "7093", "NETWORK": "MBTA", "PUBLIC_TRA": "platform", "OSM_TYPE": "node", "OSM_ID": 69504437 }, "geometry": { "type": "Point", "coordinates": [ -71.0186891, 42.3641269 ] } },
{ "type": "Feature", "properties": { "NAME": "Union Park St", "NAME_EN": null, "RAILWAY": null, "HIGHWAY": "bus_stop", "REF": "5100", "NETWORK": "MBTA", "PUBLIC_TRA": "platform", "OSM_TYPE": "node", "OSM_ID": 69504470 }, "geometry": { "type": "Point", "coordinates": [ -71.069611, 42.341446 ] } },
{ "type": "Feature", "properties": { "NAME": "Boylston", "NAME_EN": null, "RAILWAY": null, "HIGHWAY": "bus_stop", "REF": "8279", "NETWORK": "MBTA", "PUBLIC_TRA": "platform", "OSM_TYPE": "node", "OSM_ID": 69504517 }, "geometry": { "type": "Point", "coordinates": [ -71.064417, 42.3533932 ] } },
{ "type": "Feature", "properties": { "NAME": "Dry Dock Ave @ Harbor St", "NAME_EN": null, "RAILWAY": null, "HIGHWAY": "bus_stop", "REF": "30256", "NETWORK": "MBTA", "PUBLIC_TRA": "platform", "OSM_TYPE": "node", "OSM_ID": 69504553 }, "geometry": { "type": "Point", "coordinates": [ -71.0365182, 42.3447056 ] } },
{ "type": "Feature", "properties": { "NAME": "Tide St", "NAME_EN": null, "RAILWAY": null, "HIGHWAY": "bus_stop", "REF": "30249", "NETWORK": "MBTA", "PUBLIC_TRA": "platform", "OSM_TYPE": "node", "OSM_ID": 69504619 }, "geometry": { "type": "Point", "coordinates": [ -71.0323206, 42.3452607 ] } },
{ "type": "Feature", "properties": { "NAME": "Newton St", "NAME_EN": null, "RAILWAY": null, "HIGHWAY": "bus_stop", "REF": "19402", "NETWORK": "MBTA", "PUBLIC_TRA": "platform", "OSM_TYPE": "node", "OSM_ID": 69504637 }, "geometry": { "type": "Point", "coordinates": [ -71.073822, 42.338787 ] } },
{ "type": "Feature", "properties": { "NAME": "E Berkeley St @ Washington St", "NAME_EN": null, "RAILWAY": null, "HIGHWAY": "bus_stop", "REF": "36541", "NETWORK": "MBTA", "PUBLIC_TRA": "platform", "OSM_TYPE": "node", "OSM_ID": 69504725 }, "geometry": { "type": "Point", "coordinates": [ -71.0657584, 42.3439638 ] } },
{ "type": "Feature", "properties": { "NAME": "Herald St @ Washington St", "NAME_EN": null, "RAILWAY": null, "HIGHWAY": "bus_stop", "REF": "148", "NETWORK": "MBTA", "PUBLIC_TRA": "platform", "OSM_TYPE": "node", "OSM_ID": 69504746 }, "geometry": { "type": "Point", "coordinates": [ -71.06480950000001, 42.3466126 ] } },
{ "type": "Feature", "properties": { "NAME": "Nubian Station - Platform F", "NAME_EN": null, "RAILWAY": null, "HIGHWAY": "bus_stop", "REF": "64", "NETWORK": "MBTA", "PUBLIC_TRA": "platform", "OSM_TYPE": "node", "OSM_ID": 69504763 }, "geometry": { "type": "Point", "coordinates": [ -71.08378780000001, 42.3297571 ] } },
{ "type": "Feature", "properties": { "NAME": "East 1st St @ M St", "NAME_EN": null, "RAILWAY": null, "HIGHWAY": "bus_stop", "REF": "8851", "NETWORK": "MBTA", "PUBLIC_TRA": "platform", "OSM_TYPE": "node", "OSM_ID": 69504816 }, "geometry": { "type": "Point", "coordinates": [ -71.0332127, 42.3381256 ] } },
{ "type": "Feature", "properties": { "NAME": "City Point Bus Terminal", "NAME_EN": null, "RAILWAY": null, "HIGHWAY": "bus_stop", "REF": "33", "NETWORK": "MBTA", "PUBLIC_TRA": "station", "OSM_TYPE": "node", "OSM_ID": 69504856 }, "geometry": { "type": "Point", "coordinates": [ -71.031275900000011, 42.3385164 ] } },
{ "type": "Feature", "properties": { "NAME": "Worcester Square", "NAME_EN": null, "RAILWAY": null, "HIGHWAY": "bus_stop", "REF": "1787", "NETWORK": "MBTA", "PUBLIC_TRA": "platform", "OSM_TYPE": "node", "OSM_ID": 69504866 }, "geometry": { "type": "Point", "coordinates": [ -71.075478, 42.337524 ] } },
{ "type": "Feature", "properties": { "NAME": "Summer St @ Powerhouse St", "NAME_EN": null, "RAILWAY": null, "HIGHWAY": "bus_stop", "REF": "208", "NETWORK": "MBTA", "PUBLIC_TRA": "platform", "OSM_TYPE": "node", "OSM_ID": 69504914 }, "geometry": { "type": "Point", "coordinates": [ -71.0356835, 42.3404742 ] } },
{ "type": "Feature", "properties": { "NAME": "Melnea Cass Blvd @ Washington St", "NAME_EN": null, "RAILWAY": null, "HIGHWAY": "bus_stop", "REF": "7", "NETWORK": "MBTA", "PUBLIC_TRA": "platform", "OSM_TYPE": "node", "OSM_ID": 69504948 }, "geometry": { "type": "Point", "coordinates": [ -71.081108, 42.333042 ] } },
{ "type": "Feature", "properties": { "NAME": "Terminal A - Arrivals Level", "NAME_EN": null, "RAILWAY": null, "HIGHWAY": "bus_stop", "REF": "7091", "NETWORK": "MBTA", "PUBLIC_TRA": "platform", "OSM_TYPE": "node", "OSM_ID": 69505117 }, "geometry": { "type": "Point", "coordinates": [ -71.0212962, 42.3647413 ] } },
{ "type": "Feature", "properties": { "NAME": "Terminal E - Arrivals Level", "NAME_EN": null, "RAILWAY": null, "HIGHWAY": "bus_stop", "REF": "17095", "NETWORK": "MBTA", "PUBLIC_TRA": "platform", "OSM_TYPE": "node", "OSM_ID": 69505179 }, "geometry": { "type": "Point", "coordinates": [ -71.020134, 42.369457 ] } },
{ "type": "Feature", "properties": { "NAME": "27 Dry Dock Ave", "NAME_EN": null, "RAILWAY": null, "HIGHWAY": "bus_stop", "REF": "30251", "NETWORK": "MBTA", "PUBLIC_TRA": "platform", "OSM_TYPE": "node", "OSM_ID": 69505188 }, "geometry": { "type": "Point", "coordinates": [ -71.028419, 42.344707 ] } },
{ "type": "Feature", "properties": { "NAME": "Downtown Crossing - to Alewife", "NAME_EN": null, "RAILWAY": null, "HIGHWAY": "bus_stop", "REF": "70078", "NETWORK": "MBTA", "PUBLIC_TRA": "platform", "OSM_TYPE": "node", "OSM_ID": 69505206 }, "geometry": { "type": "Point", "coordinates": [ -71.060116900000011, 42.3553673 ] } },
{ "type": "Feature", "properties": { "NAME": "World Trade Center", "NAME_EN": null, "RAILWAY": null, "HIGHWAY": "bus_stop", "REF": "74615", "NETWORK": "MBTA", "PUBLIC_TRA": "platform", "OSM_TYPE": "node", "OSM_ID": 69505263 }, "geometry": { "type": "Point", "coordinates": [ -71.042486, 42.348349 ] } },
{ "type": "Feature", "properties": { "NAME": "Black Falcon Ave @ Design Center Place", "NAME_EN": null, "RAILWAY": null, "HIGHWAY": "bus_stop", "REF": "30255", "NETWORK": "MBTA", "PUBLIC_TRA": "platform", "OSM_TYPE": "node", "OSM_ID": 69505308 }, "geometry": { "type": "Point", "coordinates": [ -71.034164, 42.343918 ] } },
{ "type": "Feature", "properties": { "NAME": "Harbor St", "NAME_EN": null, "RAILWAY": null, "HIGHWAY": "bus_stop", "REF": "247", "NETWORK": "MBTA", "PUBLIC_TRA": "platform", "OSM_TYPE": "node", "OSM_ID": 69505337 }, "geometry": { "type": "Point", "coordinates": [ -71.0353733, 42.3468201 ] } },
{ "type": "Feature", "properties": { "NAME": "Silver Line Way", "NAME_EN": null, "RAILWAY": null, "HIGHWAY": "bus_stop", "REF": "74614", "NETWORK": "MBTA", "PUBLIC_TRA": "platform", "OSM_TYPE": "node", "OSM_ID": 69505387 }, "geometry": { "type": "Point", "coordinates": [ -71.0387834, 42.3471979 ] } },
{ "type": "Feature", "properties": { "NAME": "Forest Hills Station - Lower Busway", "NAME_EN": null, "RAILWAY": null, "HIGHWAY": "bus_stop", "REF": "875", "NETWORK": "MBTA", "PUBLIC_TRA": "platform", "OSM_TYPE": "node", "OSM_ID": 389822973 }, "geometry": { "type": "Point", "coordinates": [ -71.113509, 42.3005222 ] } },
{ "type": "Feature", "properties": { "NAME": "South Station", "NAME_EN": null, "RAILWAY": null, "HIGHWAY": "bus_stop", "REF": "74617", "NETWORK": "MBTA", "PUBLIC_TRA": "stop_position", "OSM_TYPE": "node", "OSM_ID": 621527744 }, "geometry": { "type": "Point", "coordinates": [ -71.0554282, 42.3525328 ] } },
{ "type": "Feature", "properties": { "NAME": "Downtown Crossing", "NAME_EN": null, "RAILWAY": null, "HIGHWAY": "bus_stop", "REF": "49001", "NETWORK": "MBTA", "PUBLIC_TRA": "platform", "OSM_TYPE": "node", "OSM_ID": 879248900 }, "geometry": { "type": "Point", "coordinates": [ -71.06221, 42.355385 ] } },
{ "type": "Feature", "properties": { "NAME": "Massachusetts Ave @ Marlborough St", "NAME_EN": null, "RAILWAY": null, "HIGHWAY": "bus_stop", "REF": "77", "NETWORK": "MBTA", "PUBLIC_TRA": "platform", "OSM_TYPE": "node", "OSM_ID": 1305540020 }, "geometry": { "type": "Point", "coordinates": [ -71.0891232, 42.3498536 ] } },
{ "type": "Feature", "properties": { "NAME": "Massachusetts Ave @ Newbury St", "NAME_EN": null, "RAILWAY": null, "HIGHWAY": "bus_stop", "REF": "93", "NETWORK": "MBTA", "PUBLIC_TRA": "platform", "OSM_TYPE": "node", "OSM_ID": 1305540819 }, "geometry": { "type": "Point", "coordinates": [ -71.0878794, 42.3479133 ] } },
{ "type": "Feature", "properties": { "NAME": "Massachusetts Ave @ Huntington Ave", "NAME_EN": null, "RAILWAY": null, "HIGHWAY": "bus_stop", "REF": "82", "NETWORK": "MBTA", "PUBLIC_TRA": "platform", "OSM_TYPE": "node", "OSM_ID": 1305543792 }, "geometry": { "type": "Point", "coordinates": [ -71.084702, 42.34248 ] } },
{ "type": "Feature", "properties": { "NAME": "Massachusetts Ave & Massachusetts Ave Station", "NAME_EN": null, "RAILWAY": null, "HIGHWAY": "bus_stop", "REF": "188", "NETWORK": "MBTA", "PUBLIC_TRA": "platform", "OSM_TYPE": "node", "OSM_ID": 1305543793 }, "geometry": { "type": "Point", "coordinates": [ -71.0830504, 42.3416243 ] } },
{ "type": "Feature", "properties": { "NAME": "88 E Newton St", "NAME_EN": null, "RAILWAY": null, "HIGHWAY": "bus_stop", "REF": "5090", "NETWORK": "MBTA", "PUBLIC_TRA": "platform", "OSM_TYPE": "node", "OSM_ID": 1305546722 }, "geometry": { "type": "Point", "coordinates": [ -71.070976, 42.336678 ] } },
{ "type": "Feature", "properties": { "NAME": "Massachusetts Ave @ Harrison Ave", "NAME_EN": null, "RAILWAY": null, "HIGHWAY": "bus_stop", "REF": "854", "NETWORK": "MBTA", "PUBLIC_TRA": "platform", "OSM_TYPE": "node", "OSM_ID": 1305546723 }, "geometry": { "type": "Point", "coordinates": [ -71.075111, 42.334747 ] } },
{ "type": "Feature", "properties": { "NAME": "Massachusetts Ave @ Tremont St", "NAME_EN": null, "RAILWAY": null, "HIGHWAY": "bus_stop", "REF": "84", "NETWORK": "MBTA", "PUBLIC_TRA": "platform", "OSM_TYPE": "node", "OSM_ID": 1305546724 }, "geometry": { "type": "Point", "coordinates": [ -71.080086, 42.3388914 ] } },
{ "type": "Feature", "properties": { "NAME": "Massachusetts Ave @ Washington St", "NAME_EN": null, "RAILWAY": null, "HIGHWAY": "bus_stop", "REF": "59", "NETWORK": "MBTA", "PUBLIC_TRA": "platform", "OSM_TYPE": "node", "OSM_ID": 1305546726 }, "geometry": { "type": "Point", "coordinates": [ -71.076942, 42.336296 ] } },
{ "type": "Feature", "properties": { "NAME": "Albany St opp Boston Medical", "NAME_EN": null, "RAILWAY": null, "HIGHWAY": "bus_stop", "REF": "10014", "NETWORK": "MBTA", "PUBLIC_TRA": "platform", "OSM_TYPE": "node", "OSM_ID": 1305546727 }, "geometry": { "type": "Point", "coordinates": [ -71.07222, 42.334339 ] } },
{ "type": "Feature", "properties": { "NAME": "A St @ Mt Washington Ave", "NAME_EN": null, "RAILWAY": null, "HIGHWAY": "bus_stop", "REF": "11419", "NETWORK": "MBTA", "PUBLIC_TRA": "platform", "OSM_TYPE": "node", "OSM_ID": 1399775331 }, "geometry": { "type": "Point", "coordinates": [ -71.05162, 42.346439 ] } },
{ "type": "Feature", "properties": { "NAME": "A St @ Necco St", "NAME_EN": null, "RAILWAY": null, "HIGHWAY": "bus_stop", "REF": "11219", "NETWORK": "MBTA", "PUBLIC_TRA": "platform", "OSM_TYPE": "node", "OSM_ID": 1399775336 }, "geometry": { "type": "Point", "coordinates": [ -71.050339, 42.348061 ] } },
{ "type": "Feature", "properties": { "NAME": "Adams St  @ Galivan Blvd", "NAME_EN": null, "RAILWAY": null, "HIGHWAY": "bus_stop", "REF": "13378", "NETWORK": "MBTA", "PUBLIC_TRA": "platform", "OSM_TYPE": "node", "OSM_ID": 1399775361 }, "geometry": { "type": "Point", "coordinates": [ -71.0560223, 42.2828152 ] } },
{ "type": "Feature", "properties": { "NAME": "Adams St @ Ashmont St", "NAME_EN": null, "RAILWAY": null, "HIGHWAY": "bus_stop", "REF": "8684", "NETWORK": "MBTA", "PUBLIC_TRA": "platform", "OSM_TYPE": "node", "OSM_ID": 1399775370 }, "geometry": { "type": "Point", "coordinates": [ -71.0554582, 42.2883028 ] } },
{ "type": "Feature", "properties": { "NAME": "Adams St @ Ashmont St", "NAME_EN": null, "RAILWAY": null, "HIGHWAY": "bus_stop", "REF": "3082", "NETWORK": "MBTA", "PUBLIC_TRA": "platform", "OSM_TYPE": "node", "OSM_ID": 1399775395 }, "geometry": { "type": "Point", "coordinates": [ -71.0553569, 42.2883702 ] } },
{ "type": "Feature", "properties": { "NAME": "Adams St @ Centre St", "NAME_EN": null, "RAILWAY": null, "HIGHWAY": "bus_stop", "REF": "8680", "NETWORK": "MBTA", "PUBLIC_TRA": "platform", "OSM_TYPE": "node", "OSM_ID": 1399775432 }, "geometry": { "type": "Point", "coordinates": [ -71.056267, 42.295292 ] } },
{ "type": "Feature", "properties": { "NAME": "Adams St @ Elmdale St", "NAME_EN": null, "RAILWAY": null, "HIGHWAY": "bus_stop", "REF": "3086", "NETWORK": "MBTA", "PUBLIC_TRA": "platform", "OSM_TYPE": "node", "OSM_ID": 1399775455 }, "geometry": { "type": "Point", "coordinates": [ -71.056244, 42.294907 ] } },
{ "type": "Feature", "properties": { "NAME": "Adams St @ Franconia St", "NAME_EN": null, "RAILWAY": null, "HIGHWAY": "bus_stop", "REF": "3080", "NETWORK": "MBTA", "PUBLIC_TRA": "platform", "OSM_TYPE": "node", "OSM_ID": 1399775464 }, "geometry": { "type": "Point", "coordinates": [ -71.0549423, 42.285355 ] } },
{ "type": "Feature", "properties": { "NAME": "Adams St @ Helena Rd", "NAME_EN": null, "RAILWAY": null, "HIGHWAY": "bus_stop", "REF": "8685", "NETWORK": "MBTA", "PUBLIC_TRA": "platform", "OSM_TYPE": "node", "OSM_ID": 1399775472 }, "geometry": { "type": "Point", "coordinates": [ -71.0546131, 42.2869892 ] } },
{ "type": "Feature", "properties": { "NAME": "Adams St @ King St", "NAME_EN": null, "RAILWAY": null, "HIGHWAY": "bus_stop", "REF": "3085", "NETWORK": "MBTA", "PUBLIC_TRA": "platform", "OSM_TYPE": "node", "OSM_ID": 1399775476 }, "geometry": { "type": "Point", "coordinates": [ -71.057243, 42.293022 ] } },
{ "type": "Feature", "properties": { "NAME": "Adams St @ King St", "NAME_EN": null, "RAILWAY": null, "HIGHWAY": "bus_stop", "REF": "8681", "NETWORK": "MBTA", "PUBLIC_TRA": "platform", "OSM_TYPE": "node", "OSM_ID": 1399775478 }, "geometry": { "type": "Point", "coordinates": [ -71.057343, 42.293217 ] } },
{ "type": "Feature", "properties": { "NAME": "Adams St @ Lonsdale St", "NAME_EN": null, "RAILWAY": null, "HIGHWAY": "bus_stop", "REF": "8682", "NETWORK": "MBTA", "PUBLIC_TRA": "platform", "OSM_TYPE": "node", "OSM_ID": 1399775483 }, "geometry": { "type": "Point", "coordinates": [ -71.057297, 42.291489 ] } },
{ "type": "Feature", "properties": { "NAME": "Adams St @ Minot St", "NAME_EN": null, "RAILWAY": null, "HIGHWAY": "bus_stop", "REF": "3079", "NETWORK": "MBTA", "PUBLIC_TRA": "platform", "OSM_TYPE": "node", "OSM_ID": 1399775490 }, "geometry": { "type": "Point", "coordinates": [ -71.0556067, 42.283472 ] } },
{ "type": "Feature", "properties": { "NAME": "Adams St @ Minot St", "NAME_EN": null, "RAILWAY": null, "HIGHWAY": "bus_stop", "REF": "8687", "NETWORK": "MBTA", "PUBLIC_TRA": "platform", "OSM_TYPE": "node", "OSM_ID": 1399775492 }, "geometry": { "type": "Point", "coordinates": [ -71.0557432, 42.283672 ] } },
{ "type": "Feature", "properties": { "NAME": "Adams St @ Msgr Lydon Way", "NAME_EN": null, "RAILWAY": null, "HIGHWAY": "bus_stop", "REF": "8683", "NETWORK": "MBTA", "PUBLIC_TRA": "platform", "OSM_TYPE": "node", "OSM_ID": 1399775494 }, "geometry": { "type": "Point", "coordinates": [ -71.056236, 42.29002 ] } },
{ "type": "Feature", "properties": { "NAME": "Adams St @ Oakton Ave.", "NAME_EN": null, "RAILWAY": null, "HIGHWAY": "bus_stop", "REF": "3081", "NETWORK": "MBTA", "PUBLIC_TRA": "platform", "OSM_TYPE": "node", "OSM_ID": 1399775495 }, "geometry": { "type": "Point", "coordinates": [ -71.0544195, 42.2867417 ] } },
{ "type": "Feature", "properties": { "NAME": "Adams St @ Parkman St", "NAME_EN": null, "RAILWAY": null, "HIGHWAY": "bus_stop", "REF": "8809", "NETWORK": "MBTA", "PUBLIC_TRA": "platform", "OSM_TYPE": "node", "OSM_ID": 1399775497 }, "geometry": { "type": "Point", "coordinates": [ -71.056564, 42.297104 ] } },
{ "type": "Feature", "properties": { "NAME": "Adams St @ Parkman St", "NAME_EN": null, "RAILWAY": null, "HIGHWAY": "bus_stop", "REF": "8326", "NETWORK": "MBTA", "PUBLIC_TRA": "platform", "OSM_TYPE": "node", "OSM_ID": 1399775499 }, "geometry": { "type": "Point", "coordinates": [ -71.056694, 42.297184 ] } },
{ "type": "Feature", "properties": { "NAME": "Adams St @ Westmoreland St", "NAME_EN": null, "RAILWAY": null, "HIGHWAY": "bus_stop", "REF": "8686", "NETWORK": "MBTA", "PUBLIC_TRA": "platform", "OSM_TYPE": "node", "OSM_ID": 1399775519 }, "geometry": { "type": "Point", "coordinates": [ -71.0552517, 42.2850838 ] } },
{ "type": "Feature", "properties": { "NAME": "Adams St opp Lonsdale St", "NAME_EN": null, "RAILWAY": null, "HIGHWAY": "bus_stop", "REF": "3084", "NETWORK": "MBTA", "PUBLIC_TRA": "platform", "OSM_TYPE": "node", "OSM_ID": 1399775528 }, "geometry": { "type": "Point", "coordinates": [ -71.057091, 42.291359 ] } },
{ "type": "Feature", "properties": { "NAME": "Adams St opp Msgr. Lydon Way", "NAME_EN": null, "RAILWAY": null, "HIGHWAY": "bus_stop", "REF": "3083", "NETWORK": "MBTA", "PUBLIC_TRA": "platform", "OSM_TYPE": "node", "OSM_ID": 1399775529 }, "geometry": { "type": "Point", "coordinates": [ -71.056023, 42.28989 ] } },
{ "type": "Feature", "properties": { "NAME": "Albany St @  E Dedham St", "NAME_EN": null, "RAILWAY": null, "HIGHWAY": "bus_stop", "REF": "10013", "NETWORK": "MBTA", "PUBLIC_TRA": "platform", "OSM_TYPE": "node", "OSM_ID": 1399775535 }, "geometry": { "type": "Point", "coordinates": [ -71.067871, 42.337555 ] } },
{ "type": "Feature", "properties": { "NAME": "Albany St @ Boston Medical Ctr", "NAME_EN": null, "RAILWAY": null, "HIGHWAY": "bus_stop", "REF": "25089", "NETWORK": "MBTA", "PUBLIC_TRA": "platform", "OSM_TYPE": "node", "OSM_ID": 1399775536 }, "geometry": { "type": "Point", "coordinates": [ -71.072311, 42.334408 ] } },
{ "type": "Feature", "properties": { "NAME": "Albany St @ Melnea Cass Blvd", "NAME_EN": null, "RAILWAY": null, "HIGHWAY": "bus_stop", "REF": "10100", "NETWORK": "MBTA", "PUBLIC_TRA": "platform", "OSM_TYPE": "node", "OSM_ID": 1399775538 }, "geometry": { "type": "Point", "coordinates": [ -71.076889, 42.331299 ] } },
{ "type": "Feature", "properties": { "NAME": "Albany St @ Northampton St", "NAME_EN": null, "RAILWAY": null, "HIGHWAY": "bus_stop", "REF": "10099", "NETWORK": "MBTA", "PUBLIC_TRA": "platform", "OSM_TYPE": "node", "OSM_ID": 1399775540 }, "geometry": { "type": "Point", "coordinates": [ -71.0745947, 42.3327622 ] } },
{ "type": "Feature", "properties": { "NAME": "Albany St @ Randolph St", "NAME_EN": null, "RAILWAY": null, "HIGHWAY": "bus_stop", "REF": "10011", "NETWORK": "MBTA", "PUBLIC_TRA": "platform", "OSM_TYPE": "node", "OSM_ID": 1399775541 }, "geometry": { "type": "Point", "coordinates": [ -71.0639106, 42.3404849 ] } },
{ "type": "Feature", "properties": { "NAME": "Albany St @ Wareham St", "NAME_EN": null, "RAILWAY": null, "HIGHWAY": "bus_stop", "REF": "10012", "NETWORK": "MBTA", "PUBLIC_TRA": "platform", "OSM_TYPE": "node", "OSM_ID": 1399775543 }, "geometry": { "type": "Point", "coordinates": [ -71.066666, 42.33836 ] } },
{ "type": "Feature", "properties": { "NAME": "Albany St opp E Concord St", "NAME_EN": null, "RAILWAY": null, "HIGHWAY": "bus_stop", "REF": "10005", "NETWORK": "MBTA", "PUBLIC_TRA": "platform", "OSM_TYPE": "node", "OSM_ID": 1399775544 }, "geometry": { "type": "Point", "coordinates": [ -71.071281, 42.335018 ] } },
{ "type": "Feature", "properties": { "NAME": "Albany St opp E Newton St", "NAME_EN": null, "RAILWAY": null, "HIGHWAY": "bus_stop", "REF": "10006", "NETWORK": "MBTA", "PUBLIC_TRA": "platform", "OSM_TYPE": "node", "OSM_ID": 1399775546 }, "geometry": { "type": "Point", "coordinates": [ -71.070137, 42.335815 ] } },
{ "type": "Feature", "properties": { "NAME": "Albany St opp Northampton St", "NAME_EN": null, "RAILWAY": null, "HIGHWAY": "bus_stop", "REF": "10004", "NETWORK": "MBTA", "PUBLIC_TRA": "stop_position", "OSM_TYPE": "node", "OSM_ID": 1399775547 }, "geometry": { "type": "Point", "coordinates": [ -71.0776076, 42.3336623 ] } },
{ "type": "Feature", "properties": { "NAME": "Albany St opp Randall St", "NAME_EN": null, "RAILWAY": null, "HIGHWAY": "bus_stop", "REF": "10003", "NETWORK": "MBTA", "PUBLIC_TRA": "platform", "OSM_TYPE": "node", "OSM_ID": 1399775549 }, "geometry": { "type": "Point", "coordinates": [ -71.076233, 42.331593 ] } },
{ "type": "Feature", "properties": { "NAME": "Albany St opp Randolph St", "NAME_EN": null, "RAILWAY": null, "HIGHWAY": "bus_stop", "REF": "10008", "NETWORK": "MBTA", "PUBLIC_TRA": "platform", "OSM_TYPE": "node", "OSM_ID": 1399775550 }, "geometry": { "type": "Point", "coordinates": [ -71.063774, 42.340412 ] } },
{ "type": "Feature", "properties": { "NAME": "Alford St @ MBTA Charlestown Garage", "NAME_EN": null, "RAILWAY": null, "HIGHWAY": "bus_stop", "REF": "55012", "NETWORK": "MBTA", "PUBLIC_TRA": "platform", "OSM_TYPE": "node", "OSM_ID": 1399775557 }, "geometry": { "type": "Point", "coordinates": [ -71.072884, 42.386902 ] } },
{ "type": "Feature", "properties": { "NAME": "Alford St @ MWRA Pump Station", "NAME_EN": null, "RAILWAY": null, "HIGHWAY": "bus_stop", "REF": "55011", "NETWORK": "MBTA", "PUBLIC_TRA": "platform", "OSM_TYPE": "node", "OSM_ID": 1399775559 }, "geometry": { "type": "Point", "coordinates": [ -71.070229, 42.391022 ] } },
{ "type": "Feature", "properties": { "NAME": "Alford St @ Main St", "NAME_EN": null, "RAILWAY": null, "HIGHWAY": "bus_stop", "REF": "5504", "NETWORK": "MBTA", "PUBLIC_TRA": "platform", "OSM_TYPE": "node", "OSM_ID": 1399775560 }, "geometry": { "type": "Point", "coordinates": [ -71.072456, 42.386021 ] } },
{ "type": "Feature", "properties": { "NAME": "Alford St @ West St", "NAME_EN": null, "RAILWAY": null, "HIGHWAY": "bus_stop", "REF": "5502", "NETWORK": "MBTA", "PUBLIC_TRA": "platform", "OSM_TYPE": "node", "OSM_ID": 1399775562 }, "geometry": { "type": "Point", "coordinates": [ -71.073448, 42.385792 ] } },
{ "type": "Feature", "properties": { "NAME": "Alwin St @ Dedham Pkwy", "NAME_EN": null, "RAILWAY": null, "HIGHWAY": "bus_stop", "REF": "6523", "NETWORK": "MBTA", "PUBLIC_TRA": "platform", "OSM_TYPE": "node", "OSM_ID": 1399775566 }, "geometry": { "type": "Point", "coordinates": [ -71.143463, 42.254524 ] } },
{ "type": "Feature", "properties": { "NAME": "Alwin St @ Dedham Pkwy", "NAME_EN": null, "RAILWAY": null, "HIGHWAY": "bus_stop", "REF": "8948", "NETWORK": "MBTA", "PUBLIC_TRA": "platform", "OSM_TYPE": "node", "OSM_ID": 1399775568 }, "geometry": { "type": "Point", "coordinates": [ -71.143433, 42.254635 ] } },
{ "type": "Feature", "properties": { "NAME": "Alwin St @ Leighton Rd", "NAME_EN": null, "RAILWAY": null, "HIGHWAY": "bus_stop", "REF": "6524", "NETWORK": "MBTA", "PUBLIC_TRA": "platform", "OSM_TYPE": "node", "OSM_ID": 1399775569 }, "geometry": { "type": "Point", "coordinates": [ -71.142021, 42.253651 ] } },
{ "type": "Feature", "properties": { "NAME": "Alwin St @ Stonehill Rd", "NAME_EN": null, "RAILWAY": null, "HIGHWAY": "bus_stop", "REF": "8946", "NETWORK": "MBTA", "PUBLIC_TRA": "platform", "OSM_TYPE": "node", "OSM_ID": 1399775571 }, "geometry": { "type": "Point", "coordinates": [ -71.140106, 42.253853 ] } },
{ "type": "Feature", "properties": { "NAME": "Alwin St @ Turtle Pond Pkwy", "NAME_EN": null, "RAILWAY": null, "HIGHWAY": "bus_stop", "REF": "6526", "NETWORK": "MBTA", "PUBLIC_TRA": "platform", "OSM_TYPE": "node", "OSM_ID": 1399775572 }, "geometry": { "type": "Point", "coordinates": [ -71.139565, 42.253876 ] } },
{ "type": "Feature", "properties": { "NAME": "Alwin St opp Leighton Rd", "NAME_EN": null, "RAILWAY": null, "HIGHWAY": "bus_stop", "REF": "8947", "NETWORK": "MBTA", "PUBLIC_TRA": "platform", "OSM_TYPE": "node", "OSM_ID": 1399775574 }, "geometry": { "type": "Point", "coordinates": [ -71.142082, 42.25375 ] } },
{ "type": "Feature", "properties": { "NAME": "American Legion Hwy @ Army Reserve", "NAME_EN": null, "RAILWAY": null, "HIGHWAY": "bus_stop", "REF": "10426", "NETWORK": "MBTA", "PUBLIC_TRA": "platform", "OSM_TYPE": "node", "OSM_ID": 1399775575 }, "geometry": { "type": "Point", "coordinates": [ -71.112434, 42.284245 ] } },
{ "type": "Feature", "properties": { "NAME": "American Legion Hwy @ Blue Hill Ave", "NAME_EN": null, "RAILWAY": null, "HIGHWAY": "bus_stop", "REF": "10417", "NETWORK": "MBTA", "PUBLIC_TRA": "platform", "OSM_TYPE": "node", "OSM_ID": 1399775580 }, "geometry": { "type": "Point", "coordinates": [ -71.087234, 42.298267 ] } },
{ "type": "Feature", "properties": { "NAME": "American Legion Hwy @ Canterbury St", "NAME_EN": null, "RAILWAY": null, "HIGHWAY": "bus_stop", "REF": "96500", "NETWORK": "MBTA", "PUBLIC_TRA": "platform", "OSM_TYPE": "node", "OSM_ID": 1399775582 }, "geometry": { "type": "Point", "coordinates": [ -71.110062, 42.285542 ] } },
{ "type": "Feature", "properties": { "NAME": "American Legion Hwy @ Canterbury St", "NAME_EN": null, "RAILWAY": null, "HIGHWAY": "bus_stop", "REF": "10419", "NETWORK": "MBTA", "PUBLIC_TRA": "platform", "OSM_TYPE": "node", "OSM_ID": 1399775584 }, "geometry": { "type": "Point", "coordinates": [ -71.109848, 42.285934 ] } },
{ "type": "Feature", "properties": { "NAME": "American Legion Hwy @ Cummins Hwy", "NAME_EN": null, "RAILWAY": null, "HIGHWAY": "bus_stop", "REF": "10424", "NETWORK": "MBTA", "PUBLIC_TRA": "platform", "OSM_TYPE": "node", "OSM_ID": 1399775587 }, "geometry": { "type": "Point", "coordinates": [ -71.116714, 42.278465 ] } },
{ "type": "Feature", "properties": { "NAME": "American Legion Hwy @ Cummins Hwy", "NAME_EN": null, "RAILWAY": null, "HIGHWAY": "bus_stop", "REF": "26500", "NETWORK": "MBTA", "PUBLIC_TRA": "platform", "OSM_TYPE": "node", "OSM_ID": 1399775588 }, "geometry": { "type": "Point", "coordinates": [ -71.116585, 42.278923 ] } },
{ "type": "Feature", "properties": { "NAME": "American Legion Hwy @ Franklin Hill Ave", "NAME_EN": null, "RAILWAY": null, "HIGHWAY": "bus_stop", "REF": "86500", "NETWORK": "MBTA", "PUBLIC_TRA": "platform", "OSM_TYPE": "node", "OSM_ID": 1399775590 }, "geometry": { "type": "Point", "coordinates": [ -71.092216, 42.295769 ] } },
{ "type": "Feature", "properties": { "NAME": "American Legion Hwy @ Kingbird Rd", "NAME_EN": null, "RAILWAY": null, "HIGHWAY": "bus_stop", "REF": "76500", "NETWORK": "MBTA", "PUBLIC_TRA": "stop_position", "OSM_TYPE": "node", "OSM_ID": 1399775597 }, "geometry": { "type": "Point", "coordinates": [ -71.094289, 42.2932847 ] } },
{ "type": "Feature", "properties": { "NAME": "American Legion Hwy @ Mt Hope St", "NAME_EN": null, "RAILWAY": null, "HIGHWAY": "bus_stop", "REF": "46500", "NETWORK": "MBTA", "PUBLIC_TRA": "platform", "OSM_TYPE": "node", "OSM_ID": 1399775604 }, "geometry": { "type": "Point", "coordinates": [ -71.114655, 42.282394 ] } },
{ "type": "Feature", "properties": { "NAME": "American Legion Hwy @ Stella Rd", "NAME_EN": null, "RAILWAY": null, "HIGHWAY": "bus_stop", "REF": "36500", "NETWORK": "MBTA", "PUBLIC_TRA": "platform", "OSM_TYPE": "node", "OSM_ID": 1399775610 }, "geometry": { "type": "Point", "coordinates": [ -71.11599, 42.280708 ] } },
{ "type": "Feature", "properties": { "NAME": "American Legion Hwy @ Stella Rd", "NAME_EN": null, "RAILWAY": null, "HIGHWAY": "bus_stop", "REF": "10423", "NETWORK": "MBTA", "PUBLIC_TRA": "platform", "OSM_TYPE": "node", "OSM_ID": 1399775611 }, "geometry": { "type": "Point", "coordinates": [ -71.116257, 42.28075 ] } },
{ "type": "Feature", "properties": { "NAME": "American Legion Hwy @ Walk Hill St", "NAME_EN": null, "RAILWAY": null, "HIGHWAY": "bus_stop", "REF": "10421", "NETWORK": "MBTA", "PUBLIC_TRA": "platform", "OSM_TYPE": "node", "OSM_ID": 1399775613 }, "geometry": { "type": "Point", "coordinates": [ -71.106956, 42.287689 ] } },
{ "type": "Feature", "properties": { "NAME": "American Legion Hwy @ Walk Hill St", "NAME_EN": null, "RAILWAY": null, "HIGHWAY": "bus_stop", "REF": "66500", "NETWORK": "MBTA", "PUBLIC_TRA": "platform", "OSM_TYPE": "node", "OSM_ID": 1399775614 }, "geometry": { "type": "Point", "coordinates": [ -71.106445, 42.287712 ] } },
{ "type": "Feature", "properties": { "NAME": "American Legion Hwy opp Franklin Hill Ave", "NAME_EN": null, "RAILWAY": null, "HIGHWAY": "bus_stop", "REF": "10418", "NETWORK": "MBTA", "PUBLIC_TRA": "platform", "OSM_TYPE": "node", "OSM_ID": 1399775616 }, "geometry": { "type": "Point", "coordinates": [ -71.092506, 42.29583 ] } },
{ "type": "Feature", "properties": { "NAME": "American Legion Hwy opp Kingbird Rd", "NAME_EN": null, "RAILWAY": null, "HIGHWAY": "bus_stop", "REF": "10427", "NETWORK": "MBTA", "PUBLIC_TRA": "stop_position", "OSM_TYPE": "node", "OSM_ID": 1399775617 }, "geometry": { "type": "Point", "coordinates": [ -71.0945295, 42.2932268 ] } },
{ "type": "Feature", "properties": { "NAME": "American Legion Hwy opp Shopping Center", "NAME_EN": null, "RAILWAY": null, "HIGHWAY": "bus_stop", "REF": "10422", "NETWORK": "MBTA", "PUBLIC_TRA": "platform", "OSM_TYPE": "node", "OSM_ID": 1399775619 }, "geometry": { "type": "Point", "coordinates": [ -71.111694, 42.284763 ] } },
{ "type": "Feature", "properties": { "NAME": "American Legion Hwy opp Shopping Mall", "NAME_EN": null, "RAILWAY": null, "HIGHWAY": "bus_stop", "REF": "10425", "NETWORK": "MBTA", "PUBLIC_TRA": "platform", "OSM_TYPE": "node", "OSM_ID": 1399775620 }, "geometry": { "type": "Point", "coordinates": [ -71.116783, 42.274384 ] } },
{ "type": "Feature", "properties": { "NAME": "Ames St @ Franklin Field Housing", "NAME_EN": null, "RAILWAY": null, "HIGHWAY": "bus_stop", "REF": "11735", "NETWORK": "MBTA", "PUBLIC_TRA": "platform", "OSM_TYPE": "node", "OSM_ID": 1399775622 }, "geometry": { "type": "Point", "coordinates": [ -71.083847, 42.289764 ] } },
{ "type": "Feature", "properties": { "NAME": "Ames St @ Westview St", "NAME_EN": null, "RAILWAY": null, "HIGHWAY": "bus_stop", "REF": "11736", "NETWORK": "MBTA", "PUBLIC_TRA": "platform", "OSM_TYPE": "node", "OSM_ID": 1399775624 }, "geometry": { "type": "Point", "coordinates": [ -71.086517, 42.290569 ] } },
{ "type": "Feature", "properties": { "NAME": "Amory St @ Boylston St", "NAME_EN": null, "RAILWAY": null, "HIGHWAY": "bus_stop", "REF": "41141", "NETWORK": "MBTA", "PUBLIC_TRA": "platform", "OSM_TYPE": "node", "OSM_ID": 1399775628 }, "geometry": { "type": "Point", "coordinates": [ -71.103096, 42.316704 ] } },
{ "type": "Feature", "properties": { "NAME": "Amory St @ Bragdon St", "NAME_EN": null, "RAILWAY": null, "HIGHWAY": "bus_stop", "REF": "31139", "NETWORK": "MBTA", "PUBLIC_TRA": "platform", "OSM_TYPE": "node", "OSM_ID": 1399775630 }, "geometry": { "type": "Point", "coordinates": [ -71.100334, 42.319534 ] } },
{ "type": "Feature", "properties": { "NAME": "Amory St @ Minton St", "NAME_EN": null, "RAILWAY": null, "HIGHWAY": "bus_stop", "REF": "41143", "NETWORK": "MBTA", "PUBLIC_TRA": "platform", "OSM_TYPE": "node", "OSM_ID": 1399775631 }, "geometry": { "type": "Point", "coordinates": [ -71.105247, 42.313656 ] } },
{ "type": "Feature", "properties": { "NAME": "Amory St opp School St", "NAME_EN": null, "RAILWAY": null, "HIGHWAY": "bus_stop", "REF": "41140", "NETWORK": "MBTA", "PUBLIC_TRA": "platform", "OSM_TYPE": "node", "OSM_ID": 1399775632 }, "geometry": { "type": "Point", "coordinates": [ -71.101761, 42.317806 ] } },
{ "type": "Feature", "properties": { "NAME": "Amory St opp W Walnut Pk", "NAME_EN": null, "RAILWAY": null, "HIGHWAY": "bus_stop", "REF": "41139", "NETWORK": "MBTA", "PUBLIC_TRA": "platform", "OSM_TYPE": "node", "OSM_ID": 1399775633 }, "geometry": { "type": "Point", "coordinates": [ -71.100914, 42.318954 ] } },
{ "type": "Feature", "properties": { "NAME": "Anawan Ave @ Allenwood St", "NAME_EN": null, "RAILWAY": null, "HIGHWAY": "bus_stop", "REF": "5213", "NETWORK": "MBTA", "PUBLIC_TRA": "platform", "OSM_TYPE": "node", "OSM_ID": 1399775635 }, "geometry": { "type": "Point", "coordinates": [ -71.149254, 42.2836 ] } },
{ "type": "Feature", "properties": { "NAME": "Anawan Ave @ W Roxbury Pkwy", "NAME_EN": null, "RAILWAY": null, "HIGHWAY": "bus_stop", "REF": "5214", "NETWORK": "MBTA", "PUBLIC_TRA": "platform", "OSM_TYPE": "node", "OSM_ID": 1399775636 }, "geometry": { "type": "Point", "coordinates": [ -71.147774, 42.28487 ] } },
{ "type": "Feature", "properties": { "NAME": "Anawan Ave @ W Roxbury Pkwy", "NAME_EN": null, "RAILWAY": null, "HIGHWAY": "bus_stop", "REF": "5258", "NETWORK": "MBTA", "PUBLIC_TRA": "platform", "OSM_TYPE": "node", "OSM_ID": 1399775638 }, "geometry": { "type": "Point", "coordinates": [ -71.147858, 42.284897 ] } },
{ "type": "Feature", "properties": { "NAME": "Andrew Sq Station - Inbound", "NAME_EN": null, "RAILWAY": null, "HIGHWAY": "bus_stop", "REF": "70084", "NETWORK": "MBTA", "PUBLIC_TRA": "platform", "OSM_TYPE": "node", "OSM_ID": 1399775646 }, "geometry": { "type": "Point", "coordinates": [ -71.057655, 42.330154 ] } },
{ "type": "Feature", "properties": { "NAME": "Aquarium Station - Outbound", "NAME_EN": null, "RAILWAY": null, "HIGHWAY": "bus_stop", "REF": "70044", "NETWORK": "MBTA", "PUBLIC_TRA": "platform", "OSM_TYPE": "node", "OSM_ID": 1399775715 }, "geometry": { "type": "Point", "coordinates": [ -71.051652, 42.359784 ] } },
{ "type": "Feature", "properties": { "NAME": "Arborway @ Shea Circle", "NAME_EN": null, "RAILWAY": null, "HIGHWAY": "bus_stop", "REF": "521", "NETWORK": "MBTA", "PUBLIC_TRA": "platform", "OSM_TYPE": "node", "OSM_ID": 1399775717 }, "geometry": { "type": "Point", "coordinates": [ -71.107368, 42.300564 ] } },
{ "type": "Feature", "properties": { "NAME": "Arborway @ Washington St", "NAME_EN": null, "RAILWAY": null, "HIGHWAY": "bus_stop", "REF": "520", "NETWORK": "MBTA", "PUBLIC_TRA": "platform", "OSM_TYPE": "node", "OSM_ID": 1399775719 }, "geometry": { "type": "Point", "coordinates": [ -71.11171, 42.301151 ] } },
{ "type": "Feature", "properties": { "NAME": "Arlington St @ Isabella St", "NAME_EN": null, "RAILWAY": null, "HIGHWAY": "bus_stop", "REF": "146", "NETWORK": "MBTA", "PUBLIC_TRA": "platform", "OSM_TYPE": "node", "OSM_ID": 1399775724 }, "geometry": { "type": "Point", "coordinates": [ -71.0695565, 42.3488103 ] } },
{ "type": "Feature", "properties": { "NAME": "Arlington St @ Saint James Ave", "NAME_EN": null, "RAILWAY": null, "HIGHWAY": "bus_stop", "REF": "145", "NETWORK": "MBTA", "PUBLIC_TRA": "platform", "OSM_TYPE": "node", "OSM_ID": 1399775725 }, "geometry": { "type": "Point", "coordinates": [ -71.0704385, 42.3511737 ] } },
{ "type": "Feature", "properties": { "NAME": "Arthur St @ Guest St - Stop & Shop", "NAME_EN": null, "RAILWAY": null, "HIGHWAY": "bus_stop", "REF": "11071", "NETWORK": "MBTA", "PUBLIC_TRA": "platform", "OSM_TYPE": "node", "OSM_ID": 1399775767 }, "geometry": { "type": "Point", "coordinates": [ -71.1408306, 42.3564203 ] } },
{ "type": "Feature", "properties": { "NAME": "Arthur St @ Guest St - Stop & Shop", "NAME_EN": null, "RAILWAY": null, "HIGHWAY": "bus_stop", "REF": "11971", "NETWORK": "MBTA", "PUBLIC_TRA": "platform", "OSM_TYPE": "node", "OSM_ID": 1399775768 }, "geometry": { "type": "Point", "coordinates": [ -71.141266, 42.3563466 ] } },
{ "type": "Feature", "properties": { "NAME": "Ashmont Station - Eastbound", "NAME_EN": null, "RAILWAY": null, "HIGHWAY": "bus_stop", "REF": "70262", "NETWORK": "MBTA", "PUBLIC_TRA": "platform", "OSM_TYPE": "node", "OSM_ID": 1399775770 }, "geometry": { "type": "Point", "coordinates": [ -71.064489, 42.284652 ] } },
{ "type": "Feature", "properties": { "NAME": "Atlantic Ave @ Commercial Wharf", "NAME_EN": null, "RAILWAY": null, "HIGHWAY": "bus_stop", "REF": "225", "NETWORK": "MBTA", "PUBLIC_TRA": "platform", "OSM_TYPE": "node", "OSM_ID": 1399775775 }, "geometry": { "type": "Point", "coordinates": [ -71.051041, 42.362144 ] } },
{ "type": "Feature", "properties": { "NAME": "Atlantic Ave @ Commercial Wharf", "NAME_EN": null, "RAILWAY": null, "HIGHWAY": "bus_stop", "REF": "30235", "NETWORK": "MBTA", "PUBLIC_TRA": "platform", "OSM_TYPE": "node", "OSM_ID": 1399775784 }, "geometry": { "type": "Point", "coordinates": [ -71.051094, 42.362335 ] } },
{ "type": "Feature", "properties": { "NAME": "Atlantic Ave @ Milk St", "NAME_EN": null, "RAILWAY": null, "HIGHWAY": "bus_stop", "REF": "30233", "NETWORK": "MBTA", "PUBLIC_TRA": "platform", "OSM_TYPE": "node", "OSM_ID": 1399775789 }, "geometry": { "type": "Point", "coordinates": [ -71.05146, 42.358673 ] } },
{ "type": "Feature", "properties": { "NAME": "Atlantic Ave @ Rowes Wharf", "NAME_EN": null, "RAILWAY": null, "HIGHWAY": "bus_stop", "REF": "223", "NETWORK": "MBTA", "PUBLIC_TRA": "platform", "OSM_TYPE": "node", "OSM_ID": 1399775791 }, "geometry": { "type": "Point", "coordinates": [ -71.050667, 42.35627 ] } },
{ "type": "Feature", "properties": { "NAME": "Atlantic Ave @ Seaport Blvd.", "NAME_EN": null, "RAILWAY": null, "HIGHWAY": "bus_stop", "REF": "222", "NETWORK": "MBTA", "PUBLIC_TRA": "platform", "OSM_TYPE": "node", "OSM_ID": 1399775792 }, "geometry": { "type": "Point", "coordinates": [ -71.051125, 42.354897 ] } },
{ "type": "Feature", "properties": { "NAME": "Atlantic Ave @ State St", "NAME_EN": null, "RAILWAY": null, "HIGHWAY": "bus_stop", "REF": "236", "NETWORK": "MBTA", "PUBLIC_TRA": "platform", "OSM_TYPE": "node", "OSM_ID": 1399775794 }, "geometry": { "type": "Point", "coordinates": [ -71.052475, 42.359539 ] } },
{ "type": "Feature", "properties": { "NAME": "Atlantic Ave @ State St-Marriot Hotel", "NAME_EN": null, "RAILWAY": null, "HIGHWAY": "bus_stop", "REF": "224", "NETWORK": "MBTA", "PUBLIC_TRA": "platform", "OSM_TYPE": "node", "OSM_ID": 1399775795 }, "geometry": { "type": "Point", "coordinates": [ -71.051727, 42.359566 ] } },
{ "type": "Feature", "properties": { "NAME": "Atlantic Ave. @ Congress St.", "NAME_EN": null, "RAILWAY": null, "HIGHWAY": "bus_stop", "REF": "221", "NETWORK": "MBTA", "PUBLIC_TRA": "platform", "OSM_TYPE": "node", "OSM_ID": 1399775797 }, "geometry": { "type": "Point", "coordinates": [ -71.053185, 42.35379 ] } },
{ "type": "Feature", "properties": { "NAME": "Auckland St @ Dewar Ave", "NAME_EN": null, "RAILWAY": null, "HIGHWAY": "bus_stop", "REF": "312", "NETWORK": "MBTA", "PUBLIC_TRA": "platform", "OSM_TYPE": "node", "OSM_ID": 1399775798 }, "geometry": { "type": "Point", "coordinates": [ -71.0569289, 42.3099994 ] } },
{ "type": "Feature", "properties": { "NAME": "Austin St @ Chestnut St", "NAME_EN": null, "RAILWAY": null, "HIGHWAY": "bus_stop", "REF": "2816", "NETWORK": "MBTA", "PUBLIC_TRA": "platform", "OSM_TYPE": "node", "OSM_ID": 1399775800 }, "geometry": { "type": "Point", "coordinates": [ -71.12606, 42.259266 ] } },
{ "type": "Feature", "properties": { "NAME": "Austin St @ Gordon Ave", "NAME_EN": null, "RAILWAY": null, "HIGHWAY": "bus_stop", "REF": "2817", "NETWORK": "MBTA", "PUBLIC_TRA": "platform", "OSM_TYPE": "node", "OSM_ID": 1399775801 }, "geometry": { "type": "Point", "coordinates": [ -71.126831, 42.25729 ] } },
{ "type": "Feature", "properties": { "NAME": "Austin St @ Myopia Rd", "NAME_EN": null, "RAILWAY": null, "HIGHWAY": "bus_stop", "REF": "2815", "NETWORK": "MBTA", "PUBLIC_TRA": "platform", "OSM_TYPE": "node", "OSM_ID": 1399775803 }, "geometry": { "type": "Point", "coordinates": [ -71.125877, 42.261414 ] } },
{ "type": "Feature", "properties": { "NAME": "Ave Louis Pasteur @ Longwood Ave", "NAME_EN": null, "RAILWAY": null, "HIGHWAY": "bus_stop", "REF": "11780", "NETWORK": "MBTA", "PUBLIC_TRA": "platform", "OSM_TYPE": "node", "OSM_ID": 1399775804 }, "geometry": { "type": "Point", "coordinates": [ -71.1021585, 42.3384194 ] } },
{ "type": "Feature", "properties": { "NAME": "Ave Louis Pasteur @ Longwood Ave", "NAME_EN": null, "RAILWAY": null, "HIGHWAY": "bus_stop", "REF": "11802", "NETWORK": "MBTA", "PUBLIC_TRA": "platform", "OSM_TYPE": "node", "OSM_ID": 1399775806 }, "geometry": { "type": "Point", "coordinates": [ -71.102341, 42.338486 ] } },
{ "type": "Feature", "properties": { "NAME": "Ave Louis Pasteur @ The Fenway", "NAME_EN": null, "RAILWAY": null, "HIGHWAY": "bus_stop", "REF": "11781", "NETWORK": "MBTA", "PUBLIC_TRA": "platform", "OSM_TYPE": "node", "OSM_ID": 1399775807 }, "geometry": { "type": "Point", "coordinates": [ -71.1008208, 42.3401943 ] } },
{ "type": "Feature", "properties": { "NAME": "Ave Louis Pasteur @ The Fenway", "NAME_EN": null, "RAILWAY": null, "HIGHWAY": "bus_stop", "REF": "11799", "NETWORK": "MBTA", "PUBLIC_TRA": "platform", "OSM_TYPE": "node", "OSM_ID": 1399775810 }, "geometry": { "type": "Point", "coordinates": [ -71.1010372, 42.3403327 ] } },
{ "type": "Feature", "properties": { "NAME": "B St @ Seaport Blvd", "NAME_EN": null, "RAILWAY": null, "HIGHWAY": "bus_stop", "REF": "2215", "NETWORK": "MBTA", "PUBLIC_TRA": "platform", "OSM_TYPE": "node", "OSM_ID": 1399775813 }, "geometry": { "type": "Point", "coordinates": [ -71.042816, 42.3503 ] } },
{ "type": "Feature", "properties": { "NAME": "B St @ Silver St", "NAME_EN": null, "RAILWAY": null, "HIGHWAY": "bus_stop", "REF": "249", "NETWORK": "MBTA", "PUBLIC_TRA": "platform", "OSM_TYPE": "node", "OSM_ID": 1399775814 }, "geometry": { "type": "Point", "coordinates": [ -71.054337, 42.340515 ] } },
{ "type": "Feature", "properties": { "NAME": "B St @ W 5th St", "NAME_EN": null, "RAILWAY": null, "HIGHWAY": "bus_stop", "REF": "250", "NETWORK": "MBTA", "PUBLIC_TRA": "platform", "OSM_TYPE": "node", "OSM_ID": 1399775816 }, "geometry": { "type": "Point", "coordinates": [ -71.055481, 42.339577 ] } },
{ "type": "Feature", "properties": { "NAME": "B St @ W 6th St", "NAME_EN": null, "RAILWAY": null, "HIGHWAY": "bus_stop", "REF": "251", "NETWORK": "MBTA", "PUBLIC_TRA": "platform", "OSM_TYPE": "node", "OSM_ID": 1399775817 }, "geometry": { "type": "Point", "coordinates": [ -71.056198, 42.338955 ] } },
{ "type": "Feature", "properties": { "NAME": "Back Bay Sta - Inbound", "NAME_EN": null, "RAILWAY": null, "HIGHWAY": "bus_stop", "REF": "70015", "NETWORK": "MBTA", "PUBLIC_TRA": "platform", "OSM_TYPE": "node", "OSM_ID": 1399775822 }, "geometry": { "type": "Point", "coordinates": [ -71.0758368, 42.3473072 ] } },
{ "type": "Feature", "properties": { "NAME": "Baker St @ Amesbury St", "NAME_EN": null, "RAILWAY": null, "HIGHWAY": "bus_stop", "REF": "85566", "NETWORK": "MBTA", "PUBLIC_TRA": "platform", "OSM_TYPE": "node", "OSM_ID": 1399775849 }, "geometry": { "type": "Point", "coordinates": [ -71.168983, 42.28175 ] } },
{ "type": "Feature", "properties": { "NAME": "Baker St @ Beth El Cemetery", "NAME_EN": null, "RAILWAY": null, "HIGHWAY": "bus_stop", "REF": "8472", "NETWORK": "MBTA", "PUBLIC_TRA": "platform", "OSM_TYPE": "node", "OSM_ID": 1399775850 }, "geometry": { "type": "Point", "coordinates": [ -71.174706, 42.291916 ] } },
{ "type": "Feature", "properties": { "NAME": "Baker St @ Beth El Cemetery", "NAME_EN": null, "RAILWAY": null, "HIGHWAY": "bus_stop", "REF": "8557", "NETWORK": "MBTA", "PUBLIC_TRA": "platform", "OSM_TYPE": "node", "OSM_ID": 1399775852 }, "geometry": { "type": "Point", "coordinates": [ -71.174973, 42.291965 ] } },
{ "type": "Feature", "properties": { "NAME": "Baker St @ Capital St", "NAME_EN": null, "RAILWAY": null, "HIGHWAY": "bus_stop", "REF": "85564", "NETWORK": "MBTA", "PUBLIC_TRA": "platform", "OSM_TYPE": "node", "OSM_ID": 1399775853 }, "geometry": { "type": "Point", "coordinates": [ -71.170731, 42.2859 ] } },
{ "type": "Feature", "properties": { "NAME": "Baker St @ Cutter Rd", "NAME_EN": null, "RAILWAY": null, "HIGHWAY": "bus_stop", "REF": "8392", "NETWORK": "MBTA", "PUBLIC_TRA": "platform", "OSM_TYPE": "node", "OSM_ID": 1399775855 }, "geometry": { "type": "Point", "coordinates": [ -71.1679515, 42.2805617 ] } },
{ "type": "Feature", "properties": { "NAME": "Baker St @ Cutter Rd", "NAME_EN": null, "RAILWAY": null, "HIGHWAY": "bus_stop", "REF": "85567", "NETWORK": "MBTA", "PUBLIC_TRA": "platform", "OSM_TYPE": "node", "OSM_ID": 1399775857 }, "geometry": { "type": "Point", "coordinates": [ -71.168071500000011, 42.2805179 ] } },
{ "type": "Feature", "properties": { "NAME": "Baker St @ Dunwell St", "NAME_EN": null, "RAILWAY": null, "HIGHWAY": "bus_stop", "REF": "85568", "NETWORK": "MBTA", "PUBLIC_TRA": "platform", "OSM_TYPE": "node", "OSM_ID": 1399775858 }, "geometry": { "type": "Point", "coordinates": [ -71.166992, 42.277519 ] } },
{ "type": "Feature", "properties": { "NAME": "Baker St @ Gethsemane Cemetery", "NAME_EN": null, "RAILWAY": null, "HIGHWAY": "bus_stop", "REF": "85561", "NETWORK": "MBTA", "PUBLIC_TRA": "platform", "OSM_TYPE": "node", "OSM_ID": 1399775860 }, "geometry": { "type": "Point", "coordinates": [ -71.172653, 42.289497 ] } },
{ "type": "Feature", "properties": { "NAME": "Baker St @ Lasell St", "NAME_EN": null, "RAILWAY": null, "HIGHWAY": "bus_stop", "REF": "833", "NETWORK": "MBTA", "PUBLIC_TRA": "platform", "OSM_TYPE": "node", "OSM_ID": 1399775861 }, "geometry": { "type": "Point", "coordinates": [ -71.170647, 42.285988 ] } },
{ "type": "Feature", "properties": { "NAME": "Baker St @ Rumford Rd", "NAME_EN": null, "RAILWAY": null, "HIGHWAY": "bus_stop", "REF": "8393", "NETWORK": "MBTA", "PUBLIC_TRA": "platform", "OSM_TYPE": "node", "OSM_ID": 1399775871 }, "geometry": { "type": "Point", "coordinates": [ -71.168999, 42.282124 ] } },
{ "type": "Feature", "properties": { "NAME": "Baker St @ VFW Pkwy", "NAME_EN": null, "RAILWAY": null, "HIGHWAY": "bus_stop", "REF": "85563", "NETWORK": "MBTA", "PUBLIC_TRA": "platform", "OSM_TYPE": "node", "OSM_ID": 1399775872 }, "geometry": { "type": "Point", "coordinates": [ -71.171455, 42.287567 ] } },
{ "type": "Feature", "properties": { "NAME": "Baker St @ VFW Pkwy", "NAME_EN": null, "RAILWAY": null, "HIGHWAY": "bus_stop", "REF": "85562", "NETWORK": "MBTA", "PUBLIC_TRA": "platform", "OSM_TYPE": "node", "OSM_ID": 1399775882 }, "geometry": { "type": "Point", "coordinates": [ -71.171822, 42.288448 ] } },
{ "type": "Feature", "properties": { "NAME": "Baker St @ VFW Pkwy", "NAME_EN": null, "RAILWAY": null, "HIGHWAY": "bus_stop", "REF": "8473", "NETWORK": "MBTA", "PUBLIC_TRA": "platform", "OSM_TYPE": "node", "OSM_ID": 1399775890 }, "geometry": { "type": "Point", "coordinates": [ -71.171722, 42.288532 ] } },
{ "type": "Feature", "properties": { "NAME": "Baker St @ Varick Rd", "NAME_EN": null, "RAILWAY": null, "HIGHWAY": "bus_stop", "REF": "8394", "NETWORK": "MBTA", "PUBLIC_TRA": "platform", "OSM_TYPE": "node", "OSM_ID": 1399775898 }, "geometry": { "type": "Point", "coordinates": [ -71.16938, 42.283318 ] } },
{ "type": "Feature", "properties": { "NAME": "Baker St @ Varick St", "NAME_EN": null, "RAILWAY": null, "HIGHWAY": "bus_stop", "REF": "85565", "NETWORK": "MBTA", "PUBLIC_TRA": "platform", "OSM_TYPE": "node", "OSM_ID": 1399775909 }, "geometry": { "type": "Point", "coordinates": [ -71.169525, 42.283386 ] } },
{ "type": "Feature", "properties": { "NAME": "Baker St @ Wycliff Ave", "NAME_EN": null, "RAILWAY": null, "HIGHWAY": "bus_stop", "REF": "85569", "NETWORK": "MBTA", "PUBLIC_TRA": "platform", "OSM_TYPE": "node", "OSM_ID": 1399775910 }, "geometry": { "type": "Point", "coordinates": [ -71.16713, 42.276203 ] } },
{ "type": "Feature", "properties": { "NAME": "Baker St opp Dunwell St", "NAME_EN": null, "RAILWAY": null, "HIGHWAY": "bus_stop", "REF": "8391", "NETWORK": "MBTA", "PUBLIC_TRA": "platform", "OSM_TYPE": "node", "OSM_ID": 1399775918 }, "geometry": { "type": "Point", "coordinates": [ -71.166862, 42.277573 ] } },
{ "type": "Feature", "properties": { "NAME": "Baker St opp Gethsemane Cemetery", "NAME_EN": null, "RAILWAY": null, "HIGHWAY": "bus_stop", "REF": "84731", "NETWORK": "MBTA", "PUBLIC_TRA": "platform", "OSM_TYPE": "node", "OSM_ID": 1399775922 }, "geometry": { "type": "Point", "coordinates": [ -71.17276, 42.289803 ] } },
{ "type": "Feature", "properties": { "NAME": "Baker St opp Wycliff Ave", "NAME_EN": null, "RAILWAY": null, "HIGHWAY": "bus_stop", "REF": "8390", "NETWORK": "MBTA", "PUBLIC_TRA": "platform", "OSM_TYPE": "node", "OSM_ID": 1399775927 }, "geometry": { "type": "Point", "coordinates": [ -71.167, 42.276249 ] } },
{ "type": "Feature", "properties": { "NAME": "Bay St @ Auckland St", "NAME_EN": null, "RAILWAY": null, "HIGHWAY": "bus_stop", "REF": "180", "NETWORK": "MBTA", "PUBLIC_TRA": "platform", "OSM_TYPE": "node", "OSM_ID": 1399775933 }, "geometry": { "type": "Point", "coordinates": [ -71.0567026, 42.3109749 ] } },
{ "type": "Feature", "properties": { "NAME": "Beacon St @ Albion St", "NAME_EN": null, "RAILWAY": null, "HIGHWAY": "bus_stop", "REF": "6393", "NETWORK": "MBTA", "PUBLIC_TRA": "platform", "OSM_TYPE": "node", "OSM_ID": 1399776118 }, "geometry": { "type": "Point", "coordinates": [ -71.115555, 42.253864 ] } },
{ "type": "Feature", "properties": { "NAME": "Beacon St @ Fairmount Ave", "NAME_EN": null, "RAILWAY": null, "HIGHWAY": "bus_stop", "REF": "6392", "NETWORK": "MBTA", "PUBLIC_TRA": "platform", "OSM_TYPE": "node", "OSM_ID": 1399776149 }, "geometry": { "type": "Point", "coordinates": [ -71.117973, 42.252483 ] } },
{ "type": "Feature", "properties": { "NAME": "Beacon St @ Metropolitan Ave", "NAME_EN": null, "RAILWAY": null, "HIGHWAY": "bus_stop", "REF": "6394", "NETWORK": "MBTA", "PUBLIC_TRA": "platform", "OSM_TYPE": "node", "OSM_ID": 1399776158 }, "geometry": { "type": "Point", "coordinates": [ -71.11248, 42.25565 ] } },
{ "type": "Feature", "properties": { "NAME": "Beacon St @ Park St", "NAME_EN": null, "RAILWAY": null, "HIGHWAY": "bus_stop", "REF": "9982", "NETWORK": "MBTA", "PUBLIC_TRA": "platform", "OSM_TYPE": "node", "OSM_ID": 1399776161 }, "geometry": { "type": "Point", "coordinates": [ -71.063278, 42.357655 ] } },
{ "type": "Feature", "properties": { "NAME": "Beacon St opp Walnut St", "NAME_EN": null, "RAILWAY": null, "HIGHWAY": "bus_stop", "REF": "9981", "NETWORK": "MBTA", "PUBLIC_TRA": "platform", "OSM_TYPE": "node", "OSM_ID": 1399776170 }, "geometry": { "type": "Point", "coordinates": [ -71.0657745, 42.3569306 ] } },
{ "type": "Feature", "properties": { "NAME": "Bedford St @ Chauncy St", "NAME_EN": null, "RAILWAY": null, "HIGHWAY": "bus_stop", "REF": "16538", "NETWORK": "MBTA", "PUBLIC_TRA": "platform", "OSM_TYPE": "node", "OSM_ID": 1399776233 }, "geometry": { "type": "Point", "coordinates": [ -71.059647, 42.353264 ] } },
{ "type": "Feature", "properties": { "NAME": "Belgrade Ave @ Aldrich St", "NAME_EN": null, "RAILWAY": null, "HIGHWAY": "bus_stop", "REF": "790", "NETWORK": "MBTA", "PUBLIC_TRA": "platform", "OSM_TYPE": "node", "OSM_ID": 1399776341 }, "geometry": { "type": "Point", "coordinates": [ -71.1396445, 42.2860777 ] } },
{ "type": "Feature", "properties": { "NAME": "Belgrade Ave @ Centre St", "NAME_EN": null, "RAILWAY": null, "HIGHWAY": "bus_stop", "REF": "786", "NETWORK": "MBTA", "PUBLIC_TRA": "stop_position", "OSM_TYPE": "node", "OSM_ID": 1399776346 }, "geometry": { "type": "Point", "coordinates": [ -71.1502114, 42.2867362 ] } },
{ "type": "Feature", "properties": { "NAME": "Belgrade Ave @ Centre St", "NAME_EN": null, "RAILWAY": null, "HIGHWAY": "bus_stop", "REF": "805", "NETWORK": "MBTA", "PUBLIC_TRA": "platform", "OSM_TYPE": "node", "OSM_ID": 1399776354 }, "geometry": { "type": "Point", "coordinates": [ -71.149994, 42.287193 ] } },
{ "type": "Feature", "properties": { "NAME": "Belgrade Ave @ Corinth St", "NAME_EN": null, "RAILWAY": null, "HIGHWAY": "bus_stop", "REF": "794", "NETWORK": "MBTA", "PUBLIC_TRA": "platform", "OSM_TYPE": "node", "OSM_ID": 1399776360 }, "geometry": { "type": "Point", "coordinates": [ -71.13100630000001, 42.2866525 ] } },
{ "type": "Feature", "properties": { "NAME": "Belgrade Ave @ Iona St", "NAME_EN": null, "RAILWAY": null, "HIGHWAY": "bus_stop", "REF": "788", "NETWORK": "MBTA", "PUBLIC_TRA": "platform", "OSM_TYPE": "node", "OSM_ID": 1399776367 }, "geometry": { "type": "Point", "coordinates": [ -71.14502, 42.285984 ] } },
{ "type": "Feature", "properties": { "NAME": "Belgrade Ave @ McGraw St", "NAME_EN": null, "RAILWAY": null, "HIGHWAY": "bus_stop", "REF": "803", "NETWORK": "MBTA", "PUBLIC_TRA": "platform", "OSM_TYPE": "node", "OSM_ID": 1399776374 }, "geometry": { "type": "Point", "coordinates": [ -71.14505, 42.286076 ] } },
{ "type": "Feature", "properties": { "NAME": "Belgrade Ave @ Penfield St", "NAME_EN": null, "RAILWAY": null, "HIGHWAY": "bus_stop", "REF": "792", "NETWORK": "MBTA", "PUBLIC_TRA": "platform", "OSM_TYPE": "node", "OSM_ID": 1399776379 }, "geometry": { "type": "Point", "coordinates": [ -71.135051, 42.2862298 ] } },
{ "type": "Feature", "properties": { "NAME": "Belgrade Ave @ Pinehurst St", "NAME_EN": null, "RAILWAY": null, "HIGHWAY": "bus_stop", "REF": "793", "NETWORK": "MBTA", "PUBLIC_TRA": "platform", "OSM_TYPE": "node", "OSM_ID": 1399776385 }, "geometry": { "type": "Point", "coordinates": [ -71.133179, 42.286301 ] } },
{ "type": "Feature", "properties": { "NAME": "Belgrade Ave @ Rexhame St", "NAME_EN": null, "RAILWAY": null, "HIGHWAY": "bus_stop", "REF": "789", "NETWORK": "MBTA", "PUBLIC_TRA": "platform", "OSM_TYPE": "node", "OSM_ID": 1399776391 }, "geometry": { "type": "Point", "coordinates": [ -71.14304820000001, 42.2860104 ] } },
{ "type": "Feature", "properties": { "NAME": "Belgrade Ave @ Robert St", "NAME_EN": null, "RAILWAY": null, "HIGHWAY": "bus_stop", "REF": "797", "NETWORK": "MBTA", "PUBLIC_TRA": "platform", "OSM_TYPE": "node", "OSM_ID": 1399776398 }, "geometry": { "type": "Point", "coordinates": [ -71.1307444, 42.2869325 ] } },
{ "type": "Feature", "properties": { "NAME": "Belgrade Ave @ Walworth St", "NAME_EN": null, "RAILWAY": null, "HIGHWAY": "bus_stop", "REF": "791", "NETWORK": "MBTA", "PUBLIC_TRA": "platform", "OSM_TYPE": "node", "OSM_ID": 1399776403 }, "geometry": { "type": "Point", "coordinates": [ -71.1372706, 42.2861871 ] } },
{ "type": "Feature", "properties": { "NAME": "Belgrade Ave @ West Roxbury Pkwy", "NAME_EN": null, "RAILWAY": null, "HIGHWAY": "bus_stop", "REF": "787", "NETWORK": "MBTA", "PUBLIC_TRA": "platform", "OSM_TYPE": "node", "OSM_ID": 1399776409 }, "geometry": { "type": "Point", "coordinates": [ -71.1479036, 42.2859163 ] } },
{ "type": "Feature", "properties": { "NAME": "Belgrade Ave @ West Roxbury Pkwy", "NAME_EN": null, "RAILWAY": null, "HIGHWAY": "bus_stop", "REF": "804", "NETWORK": "MBTA", "PUBLIC_TRA": "platform", "OSM_TYPE": "node", "OSM_ID": 1399776411 }, "geometry": { "type": "Point", "coordinates": [ -71.1479889, 42.2860619 ] } },
{ "type": "Feature", "properties": { "NAME": "Belgrade Ave opp Aldrich St", "NAME_EN": null, "RAILWAY": null, "HIGHWAY": "bus_stop", "REF": "801", "NETWORK": "MBTA", "PUBLIC_TRA": "platform", "OSM_TYPE": "node", "OSM_ID": 1399776414 }, "geometry": { "type": "Point", "coordinates": [ -71.1397064, 42.2862167 ] } },
{ "type": "Feature", "properties": { "NAME": "Belvidere St @ Huntington Ave", "NAME_EN": null, "RAILWAY": null, "HIGHWAY": "bus_stop", "REF": "1399", "NETWORK": "MBTA", "PUBLIC_TRA": "platform", "OSM_TYPE": "node", "OSM_ID": 1399776465 }, "geometry": { "type": "Point", "coordinates": [ -71.0819387, 42.3456465 ] } },
{ "type": "Feature", "properties": { "NAME": "Bennington St @ Antrim St", "NAME_EN": null, "RAILWAY": null, "HIGHWAY": "bus_stop", "REF": "5881", "NETWORK": "MBTA", "PUBLIC_TRA": "platform", "OSM_TYPE": "node", "OSM_ID": 1399776466 }, "geometry": { "type": "Point", "coordinates": [ -71.0056602, 42.3871564 ] } },
{ "type": "Feature", "properties": { "NAME": "Bennington St @ Bremen St", "NAME_EN": null, "RAILWAY": null, "HIGHWAY": "bus_stop", "REF": "5664", "NETWORK": "MBTA", "PUBLIC_TRA": "platform", "OSM_TYPE": "node", "OSM_ID": 1399776468 }, "geometry": { "type": "Point", "coordinates": [ -71.026894, 42.379353 ] } },
{ "type": "Feature", "properties": { "NAME": "Bennington St @ Brooks St", "NAME_EN": null, "RAILWAY": null, "HIGHWAY": "bus_stop", "REF": "5869", "NETWORK": "MBTA", "PUBLIC_TRA": "platform", "OSM_TYPE": "node", "OSM_ID": 1399776469 }, "geometry": { "type": "Point", "coordinates": [ -71.03347, 42.376842 ] } },
{ "type": "Feature", "properties": { "NAME": "Bennington St @ Brooks St", "NAME_EN": null, "RAILWAY": null, "HIGHWAY": "bus_stop", "REF": "5852", "NETWORK": "MBTA", "PUBLIC_TRA": "platform", "OSM_TYPE": "node", "OSM_ID": 1399776471 }, "geometry": { "type": "Point", "coordinates": [ -71.0339503, 42.3767841 ] } },
{ "type": "Feature", "properties": { "NAME": "Bennington St @ Byron St", "NAME_EN": null, "RAILWAY": null, "HIGHWAY": "bus_stop", "REF": "5875", "NETWORK": "MBTA", "PUBLIC_TRA": "platform", "OSM_TYPE": "node", "OSM_ID": 1399776472 }, "geometry": { "type": "Point", "coordinates": [ -71.016327, 42.383289 ] } },
{ "type": "Feature", "properties": { "NAME": "Bennington St @ Byron St", "NAME_EN": null, "RAILWAY": null, "HIGHWAY": "bus_stop", "REF": "5842", "NETWORK": "MBTA", "PUBLIC_TRA": "platform", "OSM_TYPE": "node", "OSM_ID": 1399776474 }, "geometry": { "type": "Point", "coordinates": [ -71.01619, 42.383511 ] } },
{ "type": "Feature", "properties": { "NAME": "Bennington St @ Chelsea St", "NAME_EN": null, "RAILWAY": null, "HIGHWAY": "bus_stop", "REF": "5849", "NETWORK": "MBTA", "PUBLIC_TRA": "platform", "OSM_TYPE": "node", "OSM_ID": 1399776476 }, "geometry": { "type": "Point", "coordinates": [ -71.027672, 42.379154 ] } },
{ "type": "Feature", "properties": { "NAME": "Bennington St @ Curtis St", "NAME_EN": null, "RAILWAY": null, "HIGHWAY": "bus_stop", "REF": "5844", "NETWORK": "MBTA", "PUBLIC_TRA": "platform", "OSM_TYPE": "node", "OSM_ID": 1399776478 }, "geometry": { "type": "Point", "coordinates": [ -71.020363, 42.381981 ] } },
{ "type": "Feature", "properties": { "NAME": "Bennington St @ Harmony St", "NAME_EN": null, "RAILWAY": null, "HIGHWAY": "bus_stop", "REF": "5873", "NETWORK": "MBTA", "PUBLIC_TRA": "platform", "OSM_TYPE": "node", "OSM_ID": 1399776479 }, "geometry": { "type": "Point", "coordinates": [ -71.020599, 42.38168 ] } },
{ "type": "Feature", "properties": { "NAME": "Bennington St @ Marion St", "NAME_EN": null, "RAILWAY": null, "HIGHWAY": "bus_stop", "REF": "5853", "NETWORK": "MBTA", "PUBLIC_TRA": "platform", "OSM_TYPE": "node", "OSM_ID": 1399776481 }, "geometry": { "type": "Point", "coordinates": [ -71.0360448, 42.3760113 ] } },
{ "type": "Feature", "properties": { "NAME": "Bennington St @ Marion St", "NAME_EN": null, "RAILWAY": null, "HIGHWAY": "bus_stop", "REF": "5868", "NETWORK": "MBTA", "PUBLIC_TRA": "platform", "OSM_TYPE": "node", "OSM_ID": 1399776482 }, "geometry": { "type": "Point", "coordinates": [ -71.0355127, 42.3761162 ] } },
{ "type": "Feature", "properties": { "NAME": "Bennington St @ Moore St", "NAME_EN": null, "RAILWAY": null, "HIGHWAY": "bus_stop", "REF": "5874", "NETWORK": "MBTA", "PUBLIC_TRA": "platform", "OSM_TYPE": "node", "OSM_ID": 1399776484 }, "geometry": { "type": "Point", "coordinates": [ -71.018471, 42.382488 ] } },
{ "type": "Feature", "properties": { "NAME": "Bennington St @ Moore St", "NAME_EN": null, "RAILWAY": null, "HIGHWAY": "bus_stop", "REF": "5843", "NETWORK": "MBTA", "PUBLIC_TRA": "platform", "OSM_TYPE": "node", "OSM_ID": 1399776486 }, "geometry": { "type": "Point", "coordinates": [ -71.018372, 42.382721 ] } },
{ "type": "Feature", "properties": { "NAME": "Bennington St @ Neptune Rd", "NAME_EN": null, "RAILWAY": null, "HIGHWAY": "bus_stop", "REF": "5665", "NETWORK": "MBTA", "PUBLIC_TRA": "platform", "OSM_TYPE": "node", "OSM_ID": 1399776487 }, "geometry": { "type": "Point", "coordinates": [ -71.025215, 42.379967 ] } },
{ "type": "Feature", "properties": { "NAME": "Bennington St @ Neptune Rd", "NAME_EN": null, "RAILWAY": null, "HIGHWAY": "bus_stop", "REF": "5848", "NETWORK": "MBTA", "PUBLIC_TRA": "platform", "OSM_TYPE": "node", "OSM_ID": 1399776489 }, "geometry": { "type": "Point", "coordinates": [ -71.025375, 42.380108 ] } },
{ "type": "Feature", "properties": { "NAME": "Bennington St @ Porter St", "NAME_EN": null, "RAILWAY": null, "HIGHWAY": "bus_stop", "REF": "5867", "NETWORK": "MBTA", "PUBLIC_TRA": "platform", "OSM_TYPE": "node", "OSM_ID": 1399776490 }, "geometry": { "type": "Point", "coordinates": [ -71.038437, 42.374985 ] } },
{ "type": "Feature", "properties": { "NAME": "Bennington St @ Porter St", "NAME_EN": null, "RAILWAY": null, "HIGHWAY": "bus_stop", "REF": "5854", "NETWORK": "MBTA", "PUBLIC_TRA": "platform", "OSM_TYPE": "node", "OSM_ID": 1399776492 }, "geometry": { "type": "Point", "coordinates": [ -71.038651, 42.375015 ] } },
{ "type": "Feature", "properties": { "NAME": "Bennington St @ Prescott St", "NAME_EN": null, "RAILWAY": null, "HIGHWAY": "bus_stop", "REF": "5850", "NETWORK": "MBTA", "PUBLIC_TRA": "platform", "OSM_TYPE": "node", "OSM_ID": 1399776494 }, "geometry": { "type": "Point", "coordinates": [ -71.030205, 42.37817 ] } },
{ "type": "Feature", "properties": { "NAME": "Bennington St @ Prescott St", "NAME_EN": null, "RAILWAY": null, "HIGHWAY": "bus_stop", "REF": "5871", "NETWORK": "MBTA", "PUBLIC_TRA": "platform", "OSM_TYPE": "node", "OSM_ID": 1399776495 }, "geometry": { "type": "Point", "coordinates": [ -71.029572, 42.3783 ] } },
{ "type": "Feature", "properties": { "NAME": "Bennington St @ Putnam St", "NAME_EN": null, "RAILWAY": null, "HIGHWAY": "bus_stop", "REF": "5851", "NETWORK": "MBTA", "PUBLIC_TRA": "platform", "OSM_TYPE": "node", "OSM_ID": 1399776497 }, "geometry": { "type": "Point", "coordinates": [ -71.031807, 42.377567 ] } },
{ "type": "Feature", "properties": { "NAME": "Bennington St @ Putnam St", "NAME_EN": null, "RAILWAY": null, "HIGHWAY": "bus_stop", "REF": "5870", "NETWORK": "MBTA", "PUBLIC_TRA": "platform", "OSM_TYPE": "node", "OSM_ID": 1399776498 }, "geometry": { "type": "Point", "coordinates": [ -71.031334, 42.377644 ] } },
{ "type": "Feature", "properties": { "NAME": "Bennington St @ Saratoga St", "NAME_EN": null, "RAILWAY": null, "HIGHWAY": "bus_stop", "REF": "5838", "NETWORK": "MBTA", "PUBLIC_TRA": "platform", "OSM_TYPE": "node", "OSM_ID": 1399776500 }, "geometry": { "type": "Point", "coordinates": [ -71.0074952, 42.3865455 ] } },
{ "type": "Feature", "properties": { "NAME": "Bennington St @ Saratoga St", "NAME_EN": null, "RAILWAY": null, "HIGHWAY": "bus_stop", "REF": "9329", "NETWORK": "MBTA", "PUBLIC_TRA": "platform", "OSM_TYPE": "node", "OSM_ID": 1399776501 }, "geometry": { "type": "Point", "coordinates": [ -71.006889, 42.3865322 ] } },
{ "type": "Feature", "properties": { "NAME": "Bennington St @ Swift St", "NAME_EN": null, "RAILWAY": null, "HIGHWAY": "bus_stop", "REF": "5872", "NETWORK": "MBTA", "PUBLIC_TRA": "platform", "OSM_TYPE": "node", "OSM_ID": 1399776503 }, "geometry": { "type": "Point", "coordinates": [ -71.021942, 42.381187 ] } },
{ "type": "Feature", "properties": { "NAME": "Bennington St @ Swift St", "NAME_EN": null, "RAILWAY": null, "HIGHWAY": "bus_stop", "REF": "5845", "NETWORK": "MBTA", "PUBLIC_TRA": "platform", "OSM_TYPE": "node", "OSM_ID": 1399776504 }, "geometry": { "type": "Point", "coordinates": [ -71.022469, 42.381222 ] } },
{ "type": "Feature", "properties": { "NAME": "Bennington St @ Trident St", "NAME_EN": null, "RAILWAY": null, "HIGHWAY": "bus_stop", "REF": "5878", "NETWORK": "MBTA", "PUBLIC_TRA": "platform", "OSM_TYPE": "node", "OSM_ID": 1399776506 }, "geometry": { "type": "Point", "coordinates": [ -71.010429, 42.385326 ] } },
{ "type": "Feature", "properties": { "NAME": "Bennington St @ Trident St", "NAME_EN": null, "RAILWAY": null, "HIGHWAY": "bus_stop", "REF": "5839", "NETWORK": "MBTA", "PUBLIC_TRA": "platform", "OSM_TYPE": "node", "OSM_ID": 1399776507 }, "geometry": { "type": "Point", "coordinates": [ -71.0103, 42.385555 ] } },
{ "type": "Feature", "properties": { "NAME": "Bennington St @ Westbrook St", "NAME_EN": null, "RAILWAY": null, "HIGHWAY": "bus_stop", "REF": "5877", "NETWORK": "MBTA", "PUBLIC_TRA": "platform", "OSM_TYPE": "node", "OSM_ID": 1399776509 }, "geometry": { "type": "Point", "coordinates": [ -71.012657, 42.384609 ] } },
{ "type": "Feature", "properties": { "NAME": "Bennington St @ Westbrook St", "NAME_EN": null, "RAILWAY": null, "HIGHWAY": "bus_stop", "REF": "5841", "NETWORK": "MBTA", "PUBLIC_TRA": "platform", "OSM_TYPE": "node", "OSM_ID": 1399776511 }, "geometry": { "type": "Point", "coordinates": [ -71.012512, 42.384811 ] } },
{ "type": "Feature", "properties": { "NAME": "Bennington St opp Wood Island Station", "NAME_EN": null, "RAILWAY": null, "HIGHWAY": "bus_stop", "REF": "5847", "NETWORK": "MBTA", "PUBLIC_TRA": "platform", "OSM_TYPE": "node", "OSM_ID": 1399776513 }, "geometry": { "type": "Point", "coordinates": [ -71.023796, 42.380711 ] } },
{ "type": "Feature", "properties": { "NAME": "Berkeley St @ Chandler St", "NAME_EN": null, "RAILWAY": null, "HIGHWAY": "bus_stop", "REF": "36540", "NETWORK": "MBTA", "PUBLIC_TRA": "platform", "OSM_TYPE": "node", "OSM_ID": 1399776514 }, "geometry": { "type": "Point", "coordinates": [ -71.0709271, 42.3471879 ] } },
{ "type": "Feature", "properties": { "NAME": "Berkeley St @ Columbus Ave", "NAME_EN": null, "RAILWAY": null, "HIGHWAY": "bus_stop", "REF": "171", "NETWORK": "MBTA", "PUBLIC_TRA": "platform", "OSM_TYPE": "node", "OSM_ID": 1399776516 }, "geometry": { "type": "Point", "coordinates": [ -71.0715435, 42.3484683 ] } },
{ "type": "Feature", "properties": { "NAME": "Birmingham Pkwy @ Soldiers Field Rd", "NAME_EN": null, "RAILWAY": null, "HIGHWAY": "bus_stop", "REF": "1204", "NETWORK": "MBTA", "PUBLIC_TRA": "platform", "OSM_TYPE": "node", "OSM_ID": 1399776548 }, "geometry": { "type": "Point", "coordinates": [ -71.158417, 42.358959 ] } },
{ "type": "Feature", "properties": { "NAME": "Black Falcon Ave", "NAME_EN": null, "RAILWAY": null, "HIGHWAY": "bus_stop", "REF": "31259", "NETWORK": "MBTA", "PUBLIC_TRA": "platform", "OSM_TYPE": "node", "OSM_ID": 1399776550 }, "geometry": { "type": "Point", "coordinates": [ -71.027214, 42.344231 ] } },
{ "type": "Feature", "properties": { "NAME": "Blue Hill Av @ Stanwood St", "NAME_EN": null, "RAILWAY": null, "HIGHWAY": "bus_stop", "REF": "1586", "NETWORK": "MBTA", "PUBLIC_TRA": "platform", "OSM_TYPE": "node", "OSM_ID": 1399776565 }, "geometry": { "type": "Point", "coordinates": [ -71.082176, 42.310143 ] } },
{ "type": "Feature", "properties": { "NAME": "Blue Hill Ave @ Almont St", "NAME_EN": null, "RAILWAY": null, "HIGHWAY": "bus_stop", "REF": "1717", "NETWORK": "MBTA", "PUBLIC_TRA": "platform", "OSM_TYPE": "node", "OSM_ID": 1399776566 }, "geometry": { "type": "Point", "coordinates": [ -71.093803, 42.274185 ] } },
{ "type": "Feature", "properties": { "NAME": "Blue Hill Ave @ American Legion Hwy", "NAME_EN": null, "RAILWAY": null, "HIGHWAY": "bus_stop", "REF": "417", "NETWORK": "MBTA", "PUBLIC_TRA": "platform", "OSM_TYPE": "node", "OSM_ID": 1399776568 }, "geometry": { "type": "Point", "coordinates": [ -71.087227, 42.297749 ] } },
{ "type": "Feature", "properties": { "NAME": "Blue Hill Ave @ Angell St", "NAME_EN": null, "RAILWAY": null, "HIGHWAY": "bus_stop", "REF": "419", "NETWORK": "MBTA", "PUBLIC_TRA": "platform", "OSM_TYPE": "node", "OSM_ID": 1399776570 }, "geometry": { "type": "Point", "coordinates": [ -71.087944, 42.295605 ] } },
{ "type": "Feature", "properties": { "NAME": "Blue Hill Ave @ Arbutus St", "NAME_EN": null, "RAILWAY": null, "HIGHWAY": "bus_stop", "REF": "1733", "NETWORK": "MBTA", "PUBLIC_TRA": "platform", "OSM_TYPE": "node", "OSM_ID": 1399776572 }, "geometry": { "type": "Point", "coordinates": [ -71.0899919, 42.2880783 ] } },
{ "type": "Feature", "properties": { "NAME": "Blue Hill Ave @ Babson St", "NAME_EN": null, "RAILWAY": null, "HIGHWAY": "bus_stop", "REF": "1723", "NETWORK": "MBTA", "PUBLIC_TRA": "platform", "OSM_TYPE": "node", "OSM_ID": 1399776574 }, "geometry": { "type": "Point", "coordinates": [ -71.093468, 42.270252 ] } },
{ "type": "Feature", "properties": { "NAME": "Blue Hill Ave @ Brunswick St", "NAME_EN": null, "RAILWAY": null, "HIGHWAY": "bus_stop", "REF": "1585", "NETWORK": "MBTA", "PUBLIC_TRA": "platform", "OSM_TYPE": "node", "OSM_ID": 1399776575 }, "geometry": { "type": "Point", "coordinates": [ -71.081146, 42.311447 ] } },
{ "type": "Feature", "properties": { "NAME": "Blue Hill Ave @ Calder St", "NAME_EN": null, "RAILWAY": null, "HIGHWAY": "bus_stop", "REF": "418", "NETWORK": "MBTA", "PUBLIC_TRA": "platform", "OSM_TYPE": "node", "OSM_ID": 1399776577 }, "geometry": { "type": "Point", "coordinates": [ -71.087578, 42.29673 ] } },
{ "type": "Feature", "properties": { "NAME": "Blue Hill Ave @ Callender St", "NAME_EN": null, "RAILWAY": null, "HIGHWAY": "bus_stop", "REF": "1734", "NETWORK": "MBTA", "PUBLIC_TRA": "platform", "OSM_TYPE": "node", "OSM_ID": 1399776578 }, "geometry": { "type": "Point", "coordinates": [ -71.089447, 42.289581 ] } },
{ "type": "Feature", "properties": { "NAME": "Blue Hill Ave @ Castlegate Rd", "NAME_EN": null, "RAILWAY": null, "HIGHWAY": "bus_stop", "REF": "385", "NETWORK": "MBTA", "PUBLIC_TRA": "platform", "OSM_TYPE": "node", "OSM_ID": 1399776581 }, "geometry": { "type": "Point", "coordinates": [ -71.08374, 42.307446 ] } },
{ "type": "Feature", "properties": { "NAME": "Blue Hill Ave @ Charlotte St", "NAME_EN": null, "RAILWAY": null, "HIGHWAY": "bus_stop", "REF": "382", "NETWORK": "MBTA", "PUBLIC_TRA": "platform", "OSM_TYPE": "node", "OSM_ID": 1399776582 }, "geometry": { "type": "Point", "coordinates": [ -71.085884, 42.300526 ] } },
{ "type": "Feature", "properties": { "NAME": "Blue Hill Ave @ Clifford St", "NAME_EN": null, "RAILWAY": null, "HIGHWAY": "bus_stop", "REF": "1581", "NETWORK": "MBTA", "PUBLIC_TRA": "platform", "OSM_TYPE": "node", "OSM_ID": 1399776584 }, "geometry": { "type": "Point", "coordinates": [ -71.077812, 42.318893 ] } },
{ "type": "Feature", "properties": { "NAME": "Blue Hill Ave @ Creston St", "NAME_EN": null, "RAILWAY": null, "HIGHWAY": "bus_stop", "REF": "1568", "NETWORK": "MBTA", "PUBLIC_TRA": "platform", "OSM_TYPE": "node", "OSM_ID": 1399776585 }, "geometry": { "type": "Point", "coordinates": [ -71.080101, 42.312576 ] } },
{ "type": "Feature", "properties": { "NAME": "Blue Hill Ave @ Devon St", "NAME_EN": null, "RAILWAY": null, "HIGHWAY": "bus_stop", "REF": "15660", "NETWORK": "MBTA", "PUBLIC_TRA": "platform", "OSM_TYPE": "node", "OSM_ID": 1399776587 }, "geometry": { "type": "Point", "coordinates": [ -71.081573, 42.310722 ] } },
{ "type": "Feature", "properties": { "NAME": "Blue Hill Ave @ Dudley St", "NAME_EN": null, "RAILWAY": null, "HIGHWAY": "bus_stop", "REF": "1576", "NETWORK": "MBTA", "PUBLIC_TRA": "platform", "OSM_TYPE": "node", "OSM_ID": 1399776588 }, "geometry": { "type": "Point", "coordinates": [ -71.07502, 42.325123 ] } },
{ "type": "Feature", "properties": { "NAME": "Blue Hill Ave @ Edgewood St", "NAME_EN": null, "RAILWAY": null, "HIGHWAY": "bus_stop", "REF": "1582", "NETWORK": "MBTA", "PUBLIC_TRA": "platform", "OSM_TYPE": "node", "OSM_ID": 1399776590 }, "geometry": { "type": "Point", "coordinates": [ -71.078087, 42.31715 ] } },
{ "type": "Feature", "properties": { "NAME": "Blue Hill Ave @ Ellington St", "NAME_EN": null, "RAILWAY": null, "HIGHWAY": "bus_stop", "REF": "383", "NETWORK": "MBTA", "PUBLIC_TRA": "platform", "OSM_TYPE": "node", "OSM_ID": 1399776592 }, "geometry": { "type": "Point", "coordinates": [ -71.085182, 42.302769 ] } },
{ "type": "Feature", "properties": { "NAME": "Blue Hill Ave @ Evelyn St", "NAME_EN": null, "RAILWAY": null, "HIGHWAY": "bus_stop", "REF": "1729", "NETWORK": "MBTA", "PUBLIC_TRA": "platform", "OSM_TYPE": "node", "OSM_ID": 1399776593 }, "geometry": { "type": "Point", "coordinates": [ -71.092697, 42.279991 ] } },
{ "type": "Feature", "properties": { "NAME": "Blue Hill Ave @ Gaston St", "NAME_EN": null, "RAILWAY": null, "HIGHWAY": "bus_stop", "REF": "1584", "NETWORK": "MBTA", "PUBLIC_TRA": "platform", "OSM_TYPE": "node", "OSM_ID": 1399776595 }, "geometry": { "type": "Point", "coordinates": [ -71.079689, 42.313309 ] } },
{ "type": "Feature", "properties": { "NAME": "Blue Hill Ave @ Goodale Rd", "NAME_EN": null, "RAILWAY": null, "HIGHWAY": "bus_stop", "REF": "1713", "NETWORK": "MBTA", "PUBLIC_TRA": "platform", "OSM_TYPE": "node", "OSM_ID": 1399776596 }, "geometry": { "type": "Point", "coordinates": [ -71.0922958, 42.2823113 ] } },
{ "type": "Feature", "properties": { "NAME": "Blue Hill Ave @ Greenock St", "NAME_EN": null, "RAILWAY": null, "HIGHWAY": "bus_stop", "REF": "1709", "NETWORK": "MBTA", "PUBLIC_TRA": "platform", "OSM_TYPE": "node", "OSM_ID": 1399776598 }, "geometry": { "type": "Point", "coordinates": [ -71.089874, 42.289639 ] } },
{ "type": "Feature", "properties": { "NAME": "Blue Hill Ave @ Hansborough St", "NAME_EN": null, "RAILWAY": null, "HIGHWAY": "bus_stop", "REF": "1710", "NETWORK": "MBTA", "PUBLIC_TRA": "platform", "OSM_TYPE": "node", "OSM_ID": 1399776599 }, "geometry": { "type": "Point", "coordinates": [ -71.090585, 42.2874179 ] } },
{ "type": "Feature", "properties": { "NAME": "Blue Hill Ave @ Harvard St", "NAME_EN": null, "RAILWAY": null, "HIGHWAY": "bus_stop", "REF": "1706", "NETWORK": "MBTA", "PUBLIC_TRA": "platform", "OSM_TYPE": "node", "OSM_ID": 1399776601 }, "geometry": { "type": "Point", "coordinates": [ -71.088188, 42.294678 ] } },
{ "type": "Feature", "properties": { "NAME": "Blue Hill Ave @ Hazelton St", "NAME_EN": null, "RAILWAY": null, "HIGHWAY": "bus_stop", "REF": "1715", "NETWORK": "MBTA", "PUBLIC_TRA": "platform", "OSM_TYPE": "node", "OSM_ID": 1399776604 }, "geometry": { "type": "Point", "coordinates": [ -71.093559, 42.278519 ] } },
{ "type": "Feature", "properties": { "NAME": "Blue Hill Ave @ Ingleside St", "NAME_EN": null, "RAILWAY": null, "HIGHWAY": "bus_stop", "REF": "1571", "NETWORK": "MBTA", "PUBLIC_TRA": "platform", "OSM_TYPE": "node", "OSM_ID": 1399776605 }, "geometry": { "type": "Point", "coordinates": [ -71.077927, 42.317318 ] } },
{ "type": "Feature", "properties": { "NAME": "Blue Hill Ave @ Intervale St", "NAME_EN": null, "RAILWAY": null, "HIGHWAY": "bus_stop", "REF": "1567", "NETWORK": "MBTA", "PUBLIC_TRA": "platform", "OSM_TYPE": "node", "OSM_ID": 1399776607 }, "geometry": { "type": "Point", "coordinates": [ -71.08075, 42.311775 ] } },
{ "type": "Feature", "properties": { "NAME": "Blue Hill Ave @ Irwin St", "NAME_EN": null, "RAILWAY": null, "HIGHWAY": "bus_stop", "REF": "1580", "NETWORK": "MBTA", "PUBLIC_TRA": "platform", "OSM_TYPE": "node", "OSM_ID": 1399776609 }, "geometry": { "type": "Point", "coordinates": [ -71.077606, 42.321121 ] } },
{ "type": "Feature", "properties": { "NAME": "Blue Hill Ave @ Julian St", "NAME_EN": null, "RAILWAY": null, "HIGHWAY": "bus_stop", "REF": "1572", "NETWORK": "MBTA", "PUBLIC_TRA": "platform", "OSM_TYPE": "node", "OSM_ID": 1399776611 }, "geometry": { "type": "Point", "coordinates": [ -71.07769, 42.319176 ] } },
{ "type": "Feature", "properties": { "NAME": "Blue Hill Ave @ Lawrence Ave", "NAME_EN": null, "RAILWAY": null, "HIGHWAY": "bus_stop", "REF": "15661", "NETWORK": "MBTA", "PUBLIC_TRA": "platform", "OSM_TYPE": "node", "OSM_ID": 1399776613 }, "geometry": { "type": "Point", "coordinates": [ -71.079498, 42.313396 ] } },
{ "type": "Feature", "properties": { "NAME": "Blue Hill Ave @ Mattapan Sq", "NAME_EN": null, "RAILWAY": null, "HIGHWAY": "bus_stop", "REF": "1720", "NETWORK": "MBTA", "PUBLIC_TRA": "platform", "OSM_TYPE": "node", "OSM_ID": 1399776614 }, "geometry": { "type": "Point", "coordinates": [ -71.093956, 42.268761 ] } },
{ "type": "Feature", "properties": { "NAME": "Blue Hill Ave @ Mattapan St", "NAME_EN": null, "RAILWAY": null, "HIGHWAY": "bus_stop", "REF": "1716", "NETWORK": "MBTA", "PUBLIC_TRA": "platform", "OSM_TYPE": "node", "OSM_ID": 1399776618 }, "geometry": { "type": "Point", "coordinates": [ -71.093719, 42.276585 ] } },
{ "type": "Feature", "properties": { "NAME": "Blue Hill Ave @ Maywood St", "NAME_EN": null, "RAILWAY": null, "HIGHWAY": "bus_stop", "REF": "15820", "NETWORK": "MBTA", "PUBLIC_TRA": "platform", "OSM_TYPE": "node", "OSM_ID": 1399776620 }, "geometry": { "type": "Point", "coordinates": [ -71.07827, 42.315952 ] } },
{ "type": "Feature", "properties": { "NAME": "Blue Hill Ave @ Moreland St", "NAME_EN": null, "RAILWAY": null, "HIGHWAY": "bus_stop", "REF": "1574", "NETWORK": "MBTA", "PUBLIC_TRA": "platform", "OSM_TYPE": "node", "OSM_ID": 1399776621 }, "geometry": { "type": "Point", "coordinates": [ -71.076675, 42.322777 ] } },
{ "type": "Feature", "properties": { "NAME": "Blue Hill Ave @ Morton St", "NAME_EN": null, "RAILWAY": null, "HIGHWAY": "bus_stop", "REF": "1731", "NETWORK": "MBTA", "PUBLIC_TRA": "platform", "OSM_TYPE": "node", "OSM_ID": 1399776623 }, "geometry": { "type": "Point", "coordinates": [ -71.0911938, 42.2845617 ] } },
{ "type": "Feature", "properties": { "NAME": "Blue Hill Ave @ Morton St", "NAME_EN": null, "RAILWAY": null, "HIGHWAY": "bus_stop", "REF": "11712", "NETWORK": "MBTA", "PUBLIC_TRA": "platform", "OSM_TYPE": "node", "OSM_ID": 1399776625 }, "geometry": { "type": "Point", "coordinates": [ -71.0917345, 42.2839362 ] } },
{ "type": "Feature", "properties": { "NAME": "Blue Hill Ave @ Mt Pleasant Ave", "NAME_EN": null, "RAILWAY": null, "HIGHWAY": "bus_stop", "REF": "1577", "NETWORK": "MBTA", "PUBLIC_TRA": "platform", "OSM_TYPE": "node", "OSM_ID": 1399776626 }, "geometry": { "type": "Point", "coordinates": [ -71.075223, 42.3251289 ] } },
{ "type": "Feature", "properties": { "NAME": "Blue Hill Ave @ Norfolk St", "NAME_EN": null, "RAILWAY": null, "HIGHWAY": "bus_stop", "REF": "1726", "NETWORK": "MBTA", "PUBLIC_TRA": "platform", "OSM_TYPE": "node", "OSM_ID": 1399776628 }, "geometry": { "type": "Point", "coordinates": [ -71.093277, 42.276665 ] } },
{ "type": "Feature", "properties": { "NAME": "Blue Hill Ave @ Pasadena Rd", "NAME_EN": null, "RAILWAY": null, "HIGHWAY": "bus_stop", "REF": "384", "NETWORK": "MBTA", "PUBLIC_TRA": "platform", "OSM_TYPE": "node", "OSM_ID": 1399776629 }, "geometry": { "type": "Point", "coordinates": [ -71.084389, 42.305939 ] } },
{ "type": "Feature", "properties": { "NAME": "Blue Hill Ave @ Paxton St", "NAME_EN": null, "RAILWAY": null, "HIGHWAY": "bus_stop", "REF": "1708", "NETWORK": "MBTA", "PUBLIC_TRA": "platform", "OSM_TYPE": "node", "OSM_ID": 1399776631 }, "geometry": { "type": "Point", "coordinates": [ -71.088997, 42.292255 ] } },
{ "type": "Feature", "properties": { "NAME": "Blue Hill Ave @ Quincy St", "NAME_EN": null, "RAILWAY": null, "HIGHWAY": "bus_stop", "REF": "1569", "NETWORK": "MBTA", "PUBLIC_TRA": "platform", "OSM_TYPE": "node", "OSM_ID": 1399776633 }, "geometry": { "type": "Point", "coordinates": [ -71.078819, 42.314495 ] } },
{ "type": "Feature", "properties": { "NAME": "Blue Hill Ave @ Quincy St", "NAME_EN": null, "RAILWAY": null, "HIGHWAY": "bus_stop", "REF": "1583", "NETWORK": "MBTA", "PUBLIC_TRA": "platform", "OSM_TYPE": "node", "OSM_ID": 1399776634 }, "geometry": { "type": "Point", "coordinates": [ -71.0788222, 42.3148041 ] } },
{ "type": "Feature", "properties": { "NAME": "Blue Hill Ave @ Regis Rd", "NAME_EN": null, "RAILWAY": null, "HIGHWAY": "bus_stop", "REF": "1719", "NETWORK": "MBTA", "PUBLIC_TRA": "platform", "OSM_TYPE": "node", "OSM_ID": 1399776636 }, "geometry": { "type": "Point", "coordinates": [ -71.093857, 42.27153 ] } },
{ "type": "Feature", "properties": { "NAME": "Blue Hill Ave @ River St", "NAME_EN": null, "RAILWAY": null, "HIGHWAY": "bus_stop", "REF": "1721", "NETWORK": "MBTA", "PUBLIC_TRA": "platform", "OSM_TYPE": "node", "OSM_ID": 1399776638 }, "geometry": { "type": "Point", "coordinates": [ -71.0936559, 42.2672859 ] } },
{ "type": "Feature", "properties": { "NAME": "Blue Hill Ave @ Seaver St", "NAME_EN": null, "RAILWAY": null, "HIGHWAY": "bus_stop", "REF": "414", "NETWORK": "MBTA", "PUBLIC_TRA": "platform", "OSM_TYPE": "node", "OSM_ID": 1399776640 }, "geometry": { "type": "Point", "coordinates": [ -71.084755, 42.305649 ] } },
{ "type": "Feature", "properties": { "NAME": "Blue Hill Ave @ Talbot Ave", "NAME_EN": null, "RAILWAY": null, "HIGHWAY": "bus_stop", "REF": "1737", "NETWORK": "MBTA", "PUBLIC_TRA": "platform", "OSM_TYPE": "node", "OSM_ID": 1399776641 }, "geometry": { "type": "Point", "coordinates": [ -71.087654, 42.295101 ] } },
{ "type": "Feature", "properties": { "NAME": "Blue Hill Ave @ Tennis Rd", "NAME_EN": null, "RAILWAY": null, "HIGHWAY": "bus_stop", "REF": "11716", "NETWORK": "MBTA", "PUBLIC_TRA": "platform", "OSM_TYPE": "node", "OSM_ID": 1399776643 }, "geometry": { "type": "Point", "coordinates": [ -71.093704, 42.275314 ] } },
{ "type": "Feature", "properties": { "NAME": "Blue Hill Ave @ Vesta St", "NAME_EN": null, "RAILWAY": null, "HIGHWAY": "bus_stop", "REF": "380", "NETWORK": "MBTA", "PUBLIC_TRA": "platform", "OSM_TYPE": "node", "OSM_ID": 1399776644 }, "geometry": { "type": "Point", "coordinates": [ -71.087112, 42.296764 ] } },
{ "type": "Feature", "properties": { "NAME": "Blue Hill Ave @ W Cottage St", "NAME_EN": null, "RAILWAY": null, "HIGHWAY": "bus_stop", "REF": "1573", "NETWORK": "MBTA", "PUBLIC_TRA": "platform", "OSM_TYPE": "node", "OSM_ID": 1399776646 }, "geometry": { "type": "Point", "coordinates": [ -71.07769, 42.320324 ] } },
{ "type": "Feature", "properties": { "NAME": "Blue Hill Ave @ Wales St", "NAME_EN": null, "RAILWAY": null, "HIGHWAY": "bus_stop", "REF": "381", "NETWORK": "MBTA", "PUBLIC_TRA": "platform", "OSM_TYPE": "node", "OSM_ID": 1399776647 }, "geometry": { "type": "Point", "coordinates": [ -71.086578, 42.298519 ] } },
{ "type": "Feature", "properties": { "NAME": "Blue Hill Ave @ Wayne St", "NAME_EN": null, "RAILWAY": null, "HIGHWAY": "bus_stop", "REF": "413", "NETWORK": "MBTA", "PUBLIC_TRA": "platform", "OSM_TYPE": "node", "OSM_ID": 1399776649 }, "geometry": { "type": "Point", "coordinates": [ -71.084419, 42.306889 ] } },
{ "type": "Feature", "properties": { "NAME": "Blue Hill Ave @ Wellington Hill St", "NAME_EN": null, "RAILWAY": null, "HIGHWAY": "bus_stop", "REF": "1714", "NETWORK": "MBTA", "PUBLIC_TRA": "platform", "OSM_TYPE": "node", "OSM_ID": 1399776651 }, "geometry": { "type": "Point", "coordinates": [ -71.093193, 42.279564 ] } },
{ "type": "Feature", "properties": { "NAME": "Blue Hill Ave @ Westview St", "NAME_EN": null, "RAILWAY": null, "HIGHWAY": "bus_stop", "REF": "1735", "NETWORK": "MBTA", "PUBLIC_TRA": "platform", "OSM_TYPE": "node", "OSM_ID": 1399776652 }, "geometry": { "type": "Point", "coordinates": [ -71.08889, 42.291298 ] } },
{ "type": "Feature", "properties": { "NAME": "Blue Hill Ave @ Wilmore St", "NAME_EN": null, "RAILWAY": null, "HIGHWAY": "bus_stop", "REF": "1728", "NETWORK": "MBTA", "PUBLIC_TRA": "platform", "OSM_TYPE": "node", "OSM_ID": 1399776654 }, "geometry": { "type": "Point", "coordinates": [ -71.093216, 42.278381 ] } },
{ "type": "Feature", "properties": { "NAME": "Blue Hill Ave @ Winthrop St", "NAME_EN": null, "RAILWAY": null, "HIGHWAY": "bus_stop", "REF": "1578", "NETWORK": "MBTA", "PUBLIC_TRA": "platform", "OSM_TYPE": "node", "OSM_ID": 1399776655 }, "geometry": { "type": "Point", "coordinates": [ -71.076309, 42.32349 ] } },
{ "type": "Feature", "properties": { "NAME": "Blue Hill Ave @ Winthrop St", "NAME_EN": null, "RAILWAY": null, "HIGHWAY": "bus_stop", "REF": "1575", "NETWORK": "MBTA", "PUBLIC_TRA": "platform", "OSM_TYPE": "node", "OSM_ID": 1399776657 }, "geometry": { "type": "Point", "coordinates": [ -71.076164, 42.323505 ] } },
{ "type": "Feature", "properties": { "NAME": "Blue Hill Ave @ Woodcliff St", "NAME_EN": null, "RAILWAY": null, "HIGHWAY": "bus_stop", "REF": "1570", "NETWORK": "MBTA", "PUBLIC_TRA": "platform", "OSM_TYPE": "node", "OSM_ID": 1399776658 }, "geometry": { "type": "Point", "coordinates": [ -71.0781128, 42.3160032 ] } },
{ "type": "Feature", "properties": { "NAME": "Blue Hill Ave @ Woodhaven St", "NAME_EN": null, "RAILWAY": null, "HIGHWAY": "bus_stop", "REF": "1718", "NETWORK": "MBTA", "PUBLIC_TRA": "platform", "OSM_TYPE": "node", "OSM_ID": 1399776660 }, "geometry": { "type": "Point", "coordinates": [ -71.093819, 42.273151 ] } },
{ "type": "Feature", "properties": { "NAME": "Blue Hill Ave @ Woodrow Ave", "NAME_EN": null, "RAILWAY": null, "HIGHWAY": "bus_stop", "REF": "1732", "NETWORK": "MBTA", "PUBLIC_TRA": "platform", "OSM_TYPE": "node", "OSM_ID": 1399776661 }, "geometry": { "type": "Point", "coordinates": [ -71.0907167, 42.2859463 ] } },
{ "type": "Feature", "properties": { "NAME": "Blue Hill Ave @ Woolson St", "NAME_EN": null, "RAILWAY": null, "HIGHWAY": "bus_stop", "REF": "1730", "NETWORK": "MBTA", "PUBLIC_TRA": "platform", "OSM_TYPE": "node", "OSM_ID": 1399776663 }, "geometry": { "type": "Point", "coordinates": [ -71.09194260000001, 42.2822412 ] } },
{ "type": "Feature", "properties": { "NAME": "Blue Hill Ave opp Babson St", "NAME_EN": null, "RAILWAY": null, "HIGHWAY": "bus_stop", "REF": "11719", "NETWORK": "MBTA", "PUBLIC_TRA": "platform", "OSM_TYPE": "node", "OSM_ID": 1399776665 }, "geometry": { "type": "Point", "coordinates": [ -71.093887, 42.27021 ] } },
{ "type": "Feature", "properties": { "NAME": "Blue Hill Ave opp Charlotte St", "NAME_EN": null, "RAILWAY": null, "HIGHWAY": "bus_stop", "REF": "416", "NETWORK": "MBTA", "PUBLIC_TRA": "platform", "OSM_TYPE": "node", "OSM_ID": 1399776666 }, "geometry": { "type": "Point", "coordinates": [ -71.086319, 42.300541 ] } },
{ "type": "Feature", "properties": { "NAME": "Blue Hill Ave opp Clarkwood St", "NAME_EN": null, "RAILWAY": null, "HIGHWAY": "bus_stop", "REF": "17130", "NETWORK": "MBTA", "PUBLIC_TRA": "platform", "OSM_TYPE": "node", "OSM_ID": 1399776668 }, "geometry": { "type": "Point", "coordinates": [ -71.092819, 42.280804 ] } },
{ "type": "Feature", "properties": { "NAME": "Blue Hill Ave opp Columbia Rd", "NAME_EN": null, "RAILWAY": null, "HIGHWAY": "bus_stop", "REF": "415", "NETWORK": "MBTA", "PUBLIC_TRA": "platform", "OSM_TYPE": "node", "OSM_ID": 1399776670 }, "geometry": { "type": "Point", "coordinates": [ -71.085373, 42.303295 ] } },
{ "type": "Feature", "properties": { "NAME": "Blue Hill Ave opp Health Ctr", "NAME_EN": null, "RAILWAY": null, "HIGHWAY": "bus_stop", "REF": "1736", "NETWORK": "MBTA", "PUBLIC_TRA": "platform", "OSM_TYPE": "node", "OSM_ID": 1399776672 }, "geometry": { "type": "Point", "coordinates": [ -71.087959, 42.294064 ] } },
{ "type": "Feature", "properties": { "NAME": "Blue Hill Ave opp Stafford St", "NAME_EN": null, "RAILWAY": null, "HIGHWAY": "bus_stop", "REF": "1579", "NETWORK": "MBTA", "PUBLIC_TRA": "platform", "OSM_TYPE": "node", "OSM_ID": 1399776673 }, "geometry": { "type": "Point", "coordinates": [ -71.077232, 42.32214 ] } },
{ "type": "Feature", "properties": { "NAME": "Blue Hill Ave opp Warren St", "NAME_EN": null, "RAILWAY": null, "HIGHWAY": "bus_stop", "REF": "1566", "NETWORK": "MBTA", "PUBLIC_TRA": "platform", "OSM_TYPE": "node", "OSM_ID": 1399776675 }, "geometry": { "type": "Point", "coordinates": [ -71.082451, 42.30962 ] } },
{ "type": "Feature", "properties": { "NAME": "Blue Hill Ave opp Westview St", "NAME_EN": null, "RAILWAY": null, "HIGHWAY": "bus_stop", "REF": "11708", "NETWORK": "MBTA", "PUBLIC_TRA": "platform", "OSM_TYPE": "node", "OSM_ID": 1399776676 }, "geometry": { "type": "Point", "coordinates": [ -71.089317, 42.291317 ] } },
{ "type": "Feature", "properties": { "NAME": "Blue Hill Ave opp Woodhaven St", "NAME_EN": null, "RAILWAY": null, "HIGHWAY": "bus_stop", "REF": "1724", "NETWORK": "MBTA", "PUBLIC_TRA": "platform", "OSM_TYPE": "node", "OSM_ID": 1399776678 }, "geometry": { "type": "Point", "coordinates": [ -71.093407, 42.272976 ] } },
{ "type": "Feature", "properties": { "NAME": "Boardman St @ Ashley St", "NAME_EN": null, "RAILWAY": null, "HIGHWAY": "bus_stop", "REF": "5883", "NETWORK": "MBTA", "PUBLIC_TRA": "platform", "OSM_TYPE": "node", "OSM_ID": 1399776685 }, "geometry": { "type": "Point", "coordinates": [ -71.0102578, 42.3889089 ] } },
{ "type": "Feature", "properties": { "NAME": "Boardman St @ Leyden St", "NAME_EN": null, "RAILWAY": null, "HIGHWAY": "bus_stop", "REF": "5884", "NETWORK": "MBTA", "PUBLIC_TRA": "platform", "OSM_TYPE": "node", "OSM_ID": 1399776686 }, "geometry": { "type": "Point", "coordinates": [ -71.0123938, 42.3907511 ] } },
{ "type": "Feature", "properties": { "NAME": "Boardman St @ Saratoga St", "NAME_EN": null, "RAILWAY": null, "HIGHWAY": "bus_stop", "REF": "5882", "NETWORK": "MBTA", "PUBLIC_TRA": "platform", "OSM_TYPE": "node", "OSM_ID": 1399776688 }, "geometry": { "type": "Point", "coordinates": [ -71.008263, 42.387325 ] } },
{ "type": "Feature", "properties": { "NAME": "Boston Athletic Club", "NAME_EN": null, "RAILWAY": null, "HIGHWAY": "bus_stop", "REF": "30884", "NETWORK": "MBTA", "PUBLIC_TRA": "platform", "OSM_TYPE": "node", "OSM_ID": 1399776693 }, "geometry": { "type": "Point", "coordinates": [ -71.040878, 42.340679 ] } },
{ "type": "Feature", "properties": { "NAME": "Boston City Hospital @ Mass Ave - Rt 276", "NAME_EN": null, "RAILWAY": null, "HIGHWAY": "bus_stop", "REF": "27600", "NETWORK": "MBTA", "PUBLIC_TRA": "platform", "OSM_TYPE": "node", "OSM_ID": 1399776725 }, "geometry": { "type": "Point", "coordinates": [ -71.073196, 42.333519 ] } },
{ "type": "Feature", "properties": { "NAME": "Boston Harbor Industrial Park", "NAME_EN": null, "RAILWAY": null, "HIGHWAY": "bus_stop", "REF": "31246", "NETWORK": "MBTA", "PUBLIC_TRA": "platform", "OSM_TYPE": "node", "OSM_ID": 1399776729 }, "geometry": { "type": "Point", "coordinates": [ -71.041039, 42.340691 ] } },
{ "type": "Feature", "properties": { "NAME": "Boston St @ Dorset St", "NAME_EN": null, "RAILWAY": null, "HIGHWAY": "bus_stop", "REF": "2938", "NETWORK": "MBTA", "PUBLIC_TRA": "platform", "OSM_TYPE": "node", "OSM_ID": 1399776738 }, "geometry": { "type": "Point", "coordinates": [ -71.059814, 42.324097 ] } },
{ "type": "Feature", "properties": { "NAME": "Boston St @ Ellery St", "NAME_EN": null, "RAILWAY": null, "HIGHWAY": "bus_stop", "REF": "2905", "NETWORK": "MBTA", "PUBLIC_TRA": "platform", "OSM_TYPE": "node", "OSM_ID": 1399776739 }, "geometry": { "type": "Point", "coordinates": [ -71.057781, 42.3284772 ] } },
{ "type": "Feature", "properties": { "NAME": "Boston St @ Fr Songin Way", "NAME_EN": null, "RAILWAY": null, "HIGHWAY": "bus_stop", "REF": "12940", "NETWORK": "MBTA", "PUBLIC_TRA": "platform", "OSM_TYPE": "node", "OSM_ID": 1399776750 }, "geometry": { "type": "Point", "coordinates": [ -71.0578069, 42.3280478 ] } },
{ "type": "Feature", "properties": { "NAME": "Boston St @ Howell St", "NAME_EN": null, "RAILWAY": null, "HIGHWAY": "bus_stop", "REF": "2939", "NETWORK": "MBTA", "PUBLIC_TRA": "platform", "OSM_TYPE": "node", "OSM_ID": 1399776765 }, "geometry": { "type": "Point", "coordinates": [ -71.059105, 42.325165 ] } },
{ "type": "Feature", "properties": { "NAME": "Boston St @ Mayhew St", "NAME_EN": null, "RAILWAY": null, "HIGHWAY": "bus_stop", "REF": "2937", "NETWORK": "MBTA", "PUBLIC_TRA": "platform", "OSM_TYPE": "node", "OSM_ID": 1399776779 }, "geometry": { "type": "Point", "coordinates": [ -71.061134, 42.321915 ] } },
{ "type": "Feature", "properties": { "NAME": "Boston St @ Rawson St", "NAME_EN": null, "RAILWAY": null, "HIGHWAY": "bus_stop", "REF": "2940", "NETWORK": "MBTA", "PUBLIC_TRA": "platform", "OSM_TYPE": "node", "OSM_ID": 1399776839 }, "geometry": { "type": "Point", "coordinates": [ -71.058647, 42.326244 ] } },
{ "type": "Feature", "properties": { "NAME": "Boston St @ W Howell St", "NAME_EN": null, "RAILWAY": null, "HIGHWAY": "bus_stop", "REF": "2907", "NETWORK": "MBTA", "PUBLIC_TRA": "platform", "OSM_TYPE": "node", "OSM_ID": 1399776859 }, "geometry": { "type": "Point", "coordinates": [ -71.05925, 42.325142 ] } },
{ "type": "Feature", "properties": { "NAME": "Boston St opp Harvest St", "NAME_EN": null, "RAILWAY": null, "HIGHWAY": "bus_stop", "REF": "2908", "NETWORK": "MBTA", "PUBLIC_TRA": "platform", "OSM_TYPE": "node", "OSM_ID": 1399776906 }, "geometry": { "type": "Point", "coordinates": [ -71.060356, 42.323524 ] } },
{ "type": "Feature", "properties": { "NAME": "Boston St opp Mayhew St", "NAME_EN": null, "RAILWAY": null, "HIGHWAY": "bus_stop", "REF": "2909", "NETWORK": "MBTA", "PUBLIC_TRA": "platform", "OSM_TYPE": "node", "OSM_ID": 1399776914 }, "geometry": { "type": "Point", "coordinates": [ -71.061188, 42.32214 ] } },
{ "type": "Feature", "properties": { "NAME": "Boston St opp Washburn St", "NAME_EN": null, "RAILWAY": null, "HIGHWAY": "bus_stop", "REF": "2906", "NETWORK": "MBTA", "PUBLIC_TRA": "platform", "OSM_TYPE": "node", "OSM_ID": 1399776934 }, "geometry": { "type": "Point", "coordinates": [ -71.058968, 42.325806 ] } },
{ "type": "Feature", "properties": { "NAME": "Boston Univ East - Inbound", "NAME_EN": null, "RAILWAY": null, "HIGHWAY": "bus_stop", "REF": "70146", "NETWORK": "MBTA", "PUBLIC_TRA": "platform", "OSM_TYPE": "node", "OSM_ID": 1399776949 }, "geometry": { "type": "Point", "coordinates": [ -71.1040669, 42.3495423 ] } },
{ "type": "Feature", "properties": { "NAME": "Bowdoin St @ Adams St", "NAME_EN": null, "RAILWAY": null, "HIGHWAY": "bus_stop", "REF": "14731", "NETWORK": "MBTA", "PUBLIC_TRA": "platform", "OSM_TYPE": "node", "OSM_ID": 1399776961 }, "geometry": { "type": "Point", "coordinates": [ -71.064049, 42.308937 ] } },
{ "type": "Feature", "properties": { "NAME": "Bowdoin St @ Eunice St", "NAME_EN": null, "RAILWAY": null, "HIGHWAY": "bus_stop", "REF": "1514", "NETWORK": "MBTA", "PUBLIC_TRA": "platform", "OSM_TYPE": "node", "OSM_ID": 1399776963 }, "geometry": { "type": "Point", "coordinates": [ -71.069725, 42.304295 ] } },
{ "type": "Feature", "properties": { "NAME": "Bowdoin St @ Geneva Ave", "NAME_EN": null, "RAILWAY": null, "HIGHWAY": "bus_stop", "REF": "1515", "NETWORK": "MBTA", "PUBLIC_TRA": "platform", "OSM_TYPE": "node", "OSM_ID": 1399776965 }, "geometry": { "type": "Point", "coordinates": [ -71.071426, 42.303497 ] } },
{ "type": "Feature", "properties": { "NAME": "Bowdoin St @ Geneva Ave", "NAME_EN": null, "RAILWAY": null, "HIGHWAY": "bus_stop", "REF": "1468", "NETWORK": "MBTA", "PUBLIC_TRA": "platform", "OSM_TYPE": "node", "OSM_ID": 1399776966 }, "geometry": { "type": "Point", "coordinates": [ -71.071274, 42.303505 ] } },
{ "type": "Feature", "properties": { "NAME": "Bowdoin St @ Hamilton St", "NAME_EN": null, "RAILWAY": null, "HIGHWAY": "bus_stop", "REF": "1471", "NETWORK": "MBTA", "PUBLIC_TRA": "platform", "OSM_TYPE": "node", "OSM_ID": 1399776969 }, "geometry": { "type": "Point", "coordinates": [ -71.067039, 42.306126 ] } },
{ "type": "Feature", "properties": { "NAME": "Bowdoin St @ Hamilton St", "NAME_EN": null, "RAILWAY": null, "HIGHWAY": "bus_stop", "REF": "1512", "NETWORK": "MBTA", "PUBLIC_TRA": "platform", "OSM_TYPE": "node", "OSM_ID": 1399776970 }, "geometry": { "type": "Point", "coordinates": [ -71.066986, 42.306328 ] } },
{ "type": "Feature", "properties": { "NAME": "Bowdoin St @ Hendry St", "NAME_EN": null, "RAILWAY": null, "HIGHWAY": "bus_stop", "REF": "1510", "NETWORK": "MBTA", "PUBLIC_TRA": "platform", "OSM_TYPE": "node", "OSM_ID": 1399776972 }, "geometry": { "type": "Point", "coordinates": [ -71.064323, 42.308815 ] } },
{ "type": "Feature", "properties": { "NAME": "Bowdoin St @ Norton St", "NAME_EN": null, "RAILWAY": null, "HIGHWAY": "bus_stop", "REF": "1470", "NETWORK": "MBTA", "PUBLIC_TRA": "platform", "OSM_TYPE": "node", "OSM_ID": 1399776976 }, "geometry": { "type": "Point", "coordinates": [ -71.067932, 42.305431 ] } },
{ "type": "Feature", "properties": { "NAME": "Bowdoin St @ Olney St", "NAME_EN": null, "RAILWAY": null, "HIGHWAY": "bus_stop", "REF": "1513", "NETWORK": "MBTA", "PUBLIC_TRA": "platform", "OSM_TYPE": "node", "OSM_ID": 1399776977 }, "geometry": { "type": "Point", "coordinates": [ -71.068298, 42.305294 ] } },
{ "type": "Feature", "properties": { "NAME": "Bowdoin St @ Quincy St", "NAME_EN": null, "RAILWAY": null, "HIGHWAY": "bus_stop", "REF": "1473", "NETWORK": "MBTA", "PUBLIC_TRA": "platform", "OSM_TYPE": "node", "OSM_ID": 1399776979 }, "geometry": { "type": "Point", "coordinates": [ -71.064857, 42.308159 ] } },
{ "type": "Feature", "properties": { "NAME": "Bowdoin St @ Quincy St", "NAME_EN": null, "RAILWAY": null, "HIGHWAY": "bus_stop", "REF": "1511", "NETWORK": "MBTA", "PUBLIC_TRA": "platform", "OSM_TYPE": "node", "OSM_ID": 1399776981 }, "geometry": { "type": "Point", "coordinates": [ -71.06501, 42.308167 ] } },
{ "type": "Feature", "properties": { "NAME": "Bowdoin St @ Tovar St", "NAME_EN": null, "RAILWAY": null, "HIGHWAY": "bus_stop", "REF": "1509", "NETWORK": "MBTA", "PUBLIC_TRA": "platform", "OSM_TYPE": "node", "OSM_ID": 1399776983 }, "geometry": { "type": "Point", "coordinates": [ -71.063141, 42.310104 ] } },
{ "type": "Feature", "properties": { "NAME": "Bowdoin St @ Winter St", "NAME_EN": null, "RAILWAY": null, "HIGHWAY": "bus_stop", "REF": "1474", "NETWORK": "MBTA", "PUBLIC_TRA": "platform", "OSM_TYPE": "node", "OSM_ID": 1399776987 }, "geometry": { "type": "Point", "coordinates": [ -71.062683, 42.310207 ] } },
{ "type": "Feature", "properties": { "NAME": "Bowdoin St opp Elba Terr", "NAME_EN": null, "RAILWAY": null, "HIGHWAY": "bus_stop", "REF": "1472", "NETWORK": "MBTA", "PUBLIC_TRA": "platform", "OSM_TYPE": "node", "OSM_ID": 1399776989 }, "geometry": { "type": "Point", "coordinates": [ -71.065475, 42.307568 ] } },